X,Y,OBJECTID,FACILITYID,INTID,REPORTDATE,ASSESSMENTYEAR,PARKNAME,PARKFACILITYID,LOCATIONID,LONGITUDE,LATITUDE,COUNCILDISTRICT,PARKDISTRICT,ACREAGEALL,ACREAGEDEV,PARKTYPE,ASSESSMENTCATEGORIES,COURTSCORETOTAL,FIELDSCORETOTAL,BENCHSCORETOTAL,BIKESCORETOTAL,PLAYGROUNDSCORETOTAL,DEVLANDSCORETOTAL,DOGPARKSCORETOTAL,DRINKFTNSCORETOTAL,EXERSTASCORETOTAL,HARDSCAPESCORETOTAL,TURFSCORETOTAL,PLANTSCORETOTAL,PKLOTSCORETOTAL,RESTROOMSCORETOTAL,SKATEPARKSCORETOTAL,PICNICSCORETOTAL,TREESSCORETOTAL,UNDEVLANDSCORETOTAL,WASTERECSCORETOTAL,WATERMGMTSCORETOTAL,OVERALLSCORE,CREATEDDATE,LASTUPDATE,ENTERPRISEID,HPIPCTILE,ASSESSMENTTYPE,ASSESSMENTID
6162405.9528438,1912920.01470047,1,520,520,2022/09/14 17:49:27+00,2022,Almaden Lake Park,583,LOC-0005,-121.87161381,37.24037749,10,1,62.76,30.4,REG,"courts,picnic_areas,playgrounds,parking_lots,restrooms,hardscapes,planting,turf,drinking_fountains,benches,developed_land,trees,undeveloped_land,waste_receptacles,water_management",1,,1,,0.7222,1,,0.75,,1,0.875,1,1,0.75,,1,0.6667,1,0.6667,0,0.82870667,2022/09/14 19:18:24+00,2022/09/14 19:18:24+00,PRN-PCAP-0000000520,87,Summer,2022-Summer
6163550.23106706,1971686.26330948,2,405,405,2022/08/19 14:20:55+00,2022,Cataldi Park,774,LOC-0043,-121.87063991,37.4018061,4,8,33.94,33.97,NEIG,"courts,fields,picnic_areas,playgrounds,exercise_stations,parking_lots,restrooms,hardscapes,planting,turf,drinking_fountains,benches,developed_land,trees,undeveloped_land,waste_receptacles,water_management",0.75,0.3,1,,0.875,0.4,,0.75,0.875,0.9167,0.75,0.8333,0.8,0.5,,1,0.8333,1,1,0,0.74019412,2022/08/19 16:44:13+00,2022/08/19 16:44:13+00,PRN-PCAP-0000000405,61.7,Summer,2022-Summer
6152245.07585588,1917755.99223323,3,200,200,2021/09/16 17:27:58+00,2021,Branham Park,461,LOC-0029,-121.90676451,37.25324371,9,1,4.67,4.64,NEIG,"courts,picnic_areas,playgrounds,exercise_stations,planting,turf,drinking_fountains,benches,developed_land,trees,undeveloped_land,waste_receptacles,water_management",1,,1,,0.8125,0.8,,0.5,0.875,,0.75,1,,,,1,1,1,1,1,0.90288462,2021/09/16 17:56:40+00,2021/10/01 00:58:57+00,PRN-PCAP-0000000200,56.6,Summer,2021-Summer
6148450.89151514,1942051.74416655,4,424,424,2022/08/22 15:41:21+00,2022,Buena Vista Park,383,LOC-0584,-121.92106665,37.31980637,6,3,0.4,0.38,NEIG,"picnic_areas,playgrounds,exercise_stations,hardscapes,planting,turf,drinking_fountains,benches,developed_land,trees,waste_receptacles,water_management",,,0,,0.75,0.8,,1,1,0.75,0.75,0.6667,,,,0.3333,0.8333,,1,1,0.740275,2022/08/22 16:05:32+00,2022/08/22 16:05:32+00,PRN-PCAP-0000000424,26.2,Summer,2022-Summer
6166263.95136139,1914910.61406572,5,113,113,2021/09/03 19:45:45+00,2021,Patty O'Malley Sports Fields,518,LOC-1038,-121.85846136,37.2459986,10,1,6.1,5.76,JU,"waste_receptacles,water_management,fields,drinking_fountains,hardscapes,planting,parking_lots,trees",,1,,,,,,0.75,,1,,1,1,,,,1,,1,1,0.96875,2021/09/03 19:51:41+00,2021/10/01 00:58:55+00,PRN-PCAP-0000000113,57.6,Summer,2021-Summer
6176390.48557022,1948573.31511289,6,1780,1780,2025/10/09 14:18:42+00,2025,Hillview Park and Hank Lopez Community Center,751,LOC-0095,-121.82531297,37.33884167,5,8,14.04,14.04,NEIG,"courts,fields,picnic_areas,playgrounds,exercise_stations,parking_lots,restrooms,turf,drinking_fountains,benches,developed_land,trees,waste_receptacles,water_management",0.3333,0.4545,1,,0.73213333,0.8,,0.5,0.75,,0.5,,0.6,0.625,,,0.3333,,0.6667,0,0.5611,2025/10/09 16:18:27+00,2025/10/09 16:18:27+00,PRN-PCAP-0000001780,13.8,Special,2025-Special
6168328.83469881,1945597.25544822,7,1358,1358,2025/09/05 19:07:49+00,2025,McLaughlin Park,653,LOC-0123,-121.85289219,37.33035204,7,2,2.06,2.07,NEIG,"courts,picnic_areas,playgrounds,hardscapes,planting,turf,drinking_fountains,benches,trees,waste_receptacles,water_management",1,,1,,0.8125,,,0.25,,0.75,0.25,0.3333,,,,0.3333,0.6667,,0.3333,1,0.61173636,2025/09/05 19:24:08+00,2025/09/05 19:24:08+00,PRN-PCAP-0000001358,1.3,Summer,2025-Summer
6169149.7011673,1951387.27634847,8,489,489,2022/08/29 19:02:36+00,2022,Zolezzi Park,647,LOC-0221,-121.85035656,37.34628506,5,8,1.81,1.8,NEIG,"courts,picnic_areas,playgrounds,exercise_stations,hardscapes,planting,turf,drinking_fountains,benches,developed_land,trees,undeveloped_land,waste_receptacles,water_management",1,,0,,0.5,0.8,,0,0.125,0.5,0.75,1,,,,0.3333,0.8333,0.5,0.3333,1,0.54820714,2022/08/29 20:18:17+00,2022/08/29 20:18:17+00,PRN-PCAP-0000000489,13.3,Summer,2022-Summer
6165266.95138688,1947476.40064006,9,385,385,2022/08/18 16:58:27+00,2022,Martin Park,757,LOC-0119,-121.86351617,37.33539047,3,2,8.43,8.51,NEIG,"fields,picnic_areas,playgrounds,turf,drinking_fountains,benches,trees,waste_receptacles,water_management,hardscapes",,0.6,1,,0.9375,,,0.75,,1,0.625,,,,,1,1,,1,1,0.89125,2022/08/18 17:21:30+00,2022/08/18 17:21:30+00,PRN-PCAP-0000000385,5,Summer,2022-Summer
6170125.24711648,1967634.79929955,10,268,268,2022/03/09 18:21:31+00,2022,Penitencia Creek Park and Berryessa Community Center,772,LOC-0156,-121.84780587,37.39094234,4,8,38.12,36.65,NEIG,"picnic_areas,playgrounds,parking_lots,hardscapes,planting,turf,benches,developed_land,trees,waste_receptacles,water_management,restrooms",,,0.3333,,1,0.8,,,,1,0.5,0.8333,1,0.625,,0.3333,0.8333,,0.3333,1,0.71595833,2022/03/09 22:27:58+00,2022/03/09 22:27:58+00,PRN-PCAP-0000000268,48.3,Special,2022-Special
6192597.22612256,1933492.28917265,11,2020,2020,2025/12/02 16:42:32+00,2025,Evergreen Park and Community Center,515,LOC-0066,-121.76886754,37.29804291,8,4,14.47,12.1,NEIG,"picnic_areas,playgrounds,restrooms,hardscapes,planting,turf,benches,developed_land,trees,waste_receptacles,water_management,drinking_fountains,parking_lots",,,1,,1,0.8,,0.75,,1,1,0.8333,0.8,1,,1,1,,1,1,0.93717692,2025/12/02 17:12:35+00,2025/12/02 17:12:35+00,PRN-PCAP-0000002020,71.8,Summer,2025-Summer
6166706.0092043,1974595.9855084,12,1611,1611,2025/09/23 14:26:06+00,2025,Berryessa Creek Park,387,LOC-0018,-121.85992236,37.40992312,4,8,11.3,7.14,NEIG,"fields,picnic_areas,playgrounds,exercise_stations,hardscapes,turf,drinking_fountains,benches,developed_land,trees,waste_receptacles,water_management",,0.7,1,,0.8334,0.6,,1,0.9375,1,0.75,,,,,1,0.8333,,1,0,0.80451667,2025/09/23 15:07:06+00,2025/09/23 15:07:06+00,PRN-PCAP-0000001611,72.8,Summer,2025-Summer
6191028.05143939,1939085.88690931,13,1019,1019,2024/09/09 19:44:56+00,2024,Village Square Branch Library,217,LOC-0439,-121.77452356,37.31334561,8,4,0.7,0.6,LIBR,"trees,waste_receptacles,water_management,planting,hardscapes",,,,,,,,,,1,,1,,,,,1,,1,1,1,2024/09/09 19:49:42+00,2024/09/09 19:49:42+00,PRN-PCAP-0000001019,91.2,Summer,2024-Summer
6176566.53574306,1937511.17581989,14,1974,1974,2025/11/13 18:06:38+00,2025,Windmill Springs Park,720,LOC-0217,-121.82416908,37.30846969,7,4,4.69,4.42,NEIG,"picnic_areas,playgrounds,planting,turf,benches,developed_land,trees,waste_receptacles,water_management,hardscapes,drinking_fountains",,,0.6667,,0.7143,1,,0.75,,0.9167,1,1,,,,,1,,1,1,0.8976,2025/11/13 18:37:12+00,2025/11/13 18:37:12+00,PRN-PCAP-0000001974,27.6,Special,2025-Special
6179920.0595478,1940522.26133314,15,1905,1905,2025/11/06 16:00:52+00,2025,Meadowfair Park,508,LOC-0126,-121.81278482,37.31686849,8,4,8.73,8.74,NEIG,"courts,picnic_areas,playgrounds,parking_lots,restrooms,planting,turf,drinking_fountains,benches,developed_land,trees,waste_receptacles,water_management,hardscapes",0.8,,0.3333,,0.8125,0.4,,0.75,,0.75,0.75,0.8333,0.8,0,,,0.6667,,0.6667,1,0.6629,2025/11/06 17:06:47+00,2025/11/06 17:06:47+00,PRN-PCAP-0000001905,23.9,Special,2025-Special
6155792.44737005,1945066.63610265,16,1028,1028,2024/09/06 15:18:20+00,2024,Discovery Dog Park,494,LOC-0710,-121.89597738,37.32838921,6,5,0.43,0.45,DOG,"dog_areas,hardscapes,benches,trees,waste_receptacles,water_management,picnic_areas",,,0.3333,,,,0.4,,,1,,,,,,0.3333,0.8333,,1,0,0.55712857,2024/09/10 17:00:44+00,2024/09/10 17:00:44+00,PRN-PCAP-0000001028,55.7,Summer,2024-Summer
6172079.46761747,1968640.1135619,17,160,160,2021/09/10 15:13:09+00,2021,Berryessa Branch Library,395,LOC-0020,-121.84112942,37.39378022,4,8,2.98,2.98,LIBR,"trees,waste_receptacles,water_management,hardscapes,planting,parking_lots",,,,,,,,,,1,,0.5,1,,,,0.5,,0.6667,1,0.77778333,2021/09/10 15:21:30+00,2021/10/01 00:58:56+00,PRN-PCAP-0000000160,38.2,Summer,2021-Summer
6162737.0486383,1923891.87858348,18,1114,1114,2024/09/13 18:53:57+00,2024,Terrell Park,21,LOC-0196,-121.8710287,37.27052157,9,2,5.74,5.82,NEIG,"picnic_areas,playgrounds,planting,turf,drinking_fountains,benches,developed_land,trees,waste_receptacles,water_management,hardscapes",,,1,,0.625,1,,1,,1,0.625,1,,,,0.6667,0.8333,,1,1,0.88636364,2024/09/13 19:15:19+00,2024/09/13 19:15:19+00,PRN-PCAP-0000001114,60.8,Summer,2024-Summer
6141951.08758564,1919084.42986506,19,301,301,2022/07/19 16:33:52+00,2022,Houge Park,561,LOC-0099,-121.94219894,37.25646149,9,1,12.12,12.22,NEIG,"courts,picnic_areas,playgrounds,exercise_stations,parking_lots,hardscapes,turf,benches,developed_land,trees,waste_receptacles,water_management,drinking_fountains,restrooms",0.8222,,1,,0.7639,0.8,,0.75,0.75,0.7917,0.375,,0.6,0.875,,0.6667,0.5,,0.6667,0,0.66865714,2022/07/19 18:32:46+00,2022/07/19 18:32:46+00,PRN-PCAP-0000000301,84.7,Summer,2022-Summer
6149432.92826498,1925255.45033139,20,1688,1688,2025/10/01 15:39:26+00,2025,Doerr Park,384,LOC-0059,-121.91681551,37.27372195,9,3,11.64,10.99,NEIG,"courts,fields,picnic_areas,playgrounds,restrooms,turf,drinking_fountains,benches,trees,waste_receptacles,water_management,hardscapes",1,0.5,0.6667,,0.74105,,,0.75,,1,0.5,,,1,,,0.6667,,1,0,0.7113,2025/10/01 16:19:33+00,2025/10/01 16:19:33+00,PRN-PCAP-0000001688,89.4,Special,2025-Special
6156577.83917198,1914162.97546914,21,971,971,2024/09/06 16:41:56+00,2024,De Anza Park,465,LOC-0058,-121.89169599,37.24355458,9,1,8.26,8.3,NEIG,"courts,fields,picnic_areas,playgrounds,restrooms,hardscapes,turf,drinking_fountains,benches,trees,waste_receptacles,water_management",0.8,0.7591,1,,0.8125,,,0.75,,0.75,0.75,,,1,,0.3333,0.5,,1,0,0.704575,2024/09/06 17:18:18+00,2024/09/06 17:18:18+00,PRN-PCAP-0000000971,58,Summer,2024-Summer
6183249.10767972,1916476.46395239,22,1857,1857,2025/11/04 21:37:41+00,2025,Ramac Park,627,LOC-0652,-121.80018944,37.25096134,2,1,11.21,10.64,NEIG,"courts,fields,picnic_areas,playgrounds,parking_lots,restrooms,hardscapes,planting,turf,drinking_fountains,benches,developed_land,trees,undeveloped_land,waste_receptacles,water_management",1,1,1,,1,1,,0.5,,1,1,1,1,0.875,,1,1,1,0.6667,1,0.94010625,2025/11/04 21:33:24+00,2025/11/04 21:37:49+00,PRN-PCAP-0000001857,66.3,Summer,2025-Summer
6150035.00809756,1922228.64536139,23,1855,1855,2025/11/04 21:13:32+00,2025,Richard E Huerta Park,557,LOC-0101,-121.91458931,37.26543487,9,1,0.45,0.45,NEIG,"playgrounds,hardscapes,turf,drinking_fountains,trees,waste_receptacles,water_management",,,,,0.75,,,0.75,,1,1,,,,,,1,,1,1,0.92857143,2025/11/04 21:24:02+00,2025/11/04 21:24:02+00,PRN-PCAP-0000001855,89.4,Summer,2025-Summer
6155461.72788714,1930161.40278982,24,663,663,2023/09/21 17:39:24+00,2023,Wallenberg Park,51,LOC-0208,-121.89634984,37.28744337,6,3,7.97,8,NEIG,"courts,picnic_areas,playgrounds,restrooms,hardscapes,turf,drinking_fountains,benches,developed_land,trees,waste_receptacles,water_management,exercise_stations",1,,1,,0.875,1,,0.5,0.75,1,1,,,1,,1,0.8333,,1,1,0.91986923,2023/09/21 20:36:42+00,2023/09/21 20:36:42+00,PRN-PCAP-0000000663,,Summer,2023-Summer
6170779.33373481,1941005.35616748,25,19,19,2021/08/20 19:34:47+00,2021,Shirakawa Community Center,750,LOC-0075,-121.84423806,37.3178388,7,2,2.65,2.65,CC,"playgrounds,parking_lots,planting,turf,benches,developed_land,trees,water_management,hardscapes",,,0.6667,,1,0.6,,,,1,0.625,0.8333,1,,,,1,,,1,0.85833333,2021/08/20 19:59:33+00,2021/10/01 00:58:52+00,PRN-PCAP-0000000019,31.7,Summer,2021-Summer
6169802.91081889,1961590.17260931,26,1290,1290,2024/09/24 14:37:55+00,2024,Delano Manongs Park,810,LOC-1101,-121.84861546,37.37432995,5,8,0.58,0,NEIG,"playgrounds,hardscapes,turf,drinking_fountains,benches,trees,waste_receptacles,water_management,picnic_areas,planting",,,1,,1,,,1,,1,1,1,,,,1,1,,1,1,1,2024/09/24 14:55:06+00,2024/09/24 14:55:06+00,PRN-PCAP-0000001290,35.9,Summer,2024-Summer
6164226.85701039,1918969.91073714,27,1274,1274,2023/10/12 17:22:53+00,2023,William H. Cilker Park,456,LOC-0595,-121.86566252,37.25706476,9,1,1.93,1.99,NEIG,"drinking_fountains,benches,developed_land,trees,undeveloped_land,waste_receptacles,water_management",,,1,,,1,,1,,,,,,,,,1,1,1,1,1,2023/10/13 21:15:08+00,2023/10/13 21:15:08+00,PRN-PCAP-0000001274,47,Summer,2023-Summer
6167144.82394347,1958455.31044073,28,816,816,2023/10/24 14:44:32+00,2023,Educational Park Branch Library,406,LOC-0273,-121.85760552,37.36561551,5,8,1.78,1.78,LIBR,"developed_land,trees,undeveloped_land,waste_receptacles,water_management,planting,parking_lots",,,,,,1,,,,,,0.8333,1,,,,1,1,1,1,0.97618571,2023/10/24 14:56:41+00,2023/10/24 14:56:41+00,PRN-PCAP-0000000816,,Summer,2023-Summer
6118118.65198289,1936227.01172157,29,34,34,2021/08/25 14:23:46+00,2021,Calabazas Park,466,LOC-0033,-122.02503534,37.30249966,1,3,17.31,15.12,NEIG,"courts,fields,picnic_areas,bike_parks,playgrounds,parking_lots,restrooms,hardscapes,planting,turf,drinking_fountains,benches,developed_land,trees,undeveloped_land,waste_receptacles,water_management",0.8222,0.3636,1,0.875,0.75,1,,0.25,,1,0.375,0.8333,1,0.875,,0.3333,0.6667,0.5,0.6667,0,0.66534118,2021/08/25 16:02:28+00,2021/10/01 00:37:49+00,PRN-PCAP-0000000034,79.2,Summer,2021-Summer
6149432.92826498,1925255.45033139,30,527,527,2022/09/14 18:55:58+00,2022,Doerr Park,384,LOC-0059,-121.91681551,37.27372195,9,3,11.64,10.99,NEIG,"courts,fields,hardscape,picnic_areas,playgrounds,restrooms,turf,drinking_fountains,benches,trees,waste_receptacles,water_management",1,0.6,1,,1,,,1,,1,0.625,,,0.875,,1,0.6667,,1,1,0.897225,2022/09/14 19:11:38+00,2022/09/14 19:11:38+00,PRN-PCAP-0000000527,89.4,Summer,2022-Summer
6171666.37264314,1938693.90048856,31,1924,1924,2025/11/06 17:00:36+00,2025,Tully Community Branch Library,98,LOC-0573,-121.84107414,37.31152605,7,4,3.19,3.24,LIBR,"developed_land,trees,water_management,parking_lots,hardscapes",,,,,,1,,,,1,,,1,,,,1,,,1,1,2025/11/07 17:12:47+00,2025/11/07 17:12:47+00,PRN-PCAP-0000001924,27.6,Special,2025-Special
6170741.48046406,1951921.28545105,32,962,962,2024/09/06 16:37:51+00,2024,Parque de la Amistad,650,LOC-0152,-121.84490765,37.3478145,5,8,0.95,0.95,NEIG,"picnic_areas,playgrounds,hardscapes,turf,drinking_fountains,benches,developed_land,trees,undeveloped_land,waste_receptacles,water_management",,,1,,0.8125,1,,1,,1,1,,,,,1,1,1,0.6667,1,0.95265455,2024/09/06 16:55:23+00,2024/09/06 16:55:23+00,PRN-PCAP-0000000962,2.3,Summer,2024-Summer
6172663.8102808,1965592.03370006,33,85,85,2021/09/01 18:00:12+00,2021,Cimarron Park,388,LOC-0048,-121.83896804,37.38543261,5,8,6.56,6.56,NEIG,"courts,picnic_areas,playgrounds,planting,turf,drinking_fountains,benches,developed_land,trees,waste_receptacles,water_management",0.7,,0.3333,,0.5,1,,0.5,,,0.5,1,,,,1,0.8333,,0.6667,1,0.7303,2021/09/01 18:56:03+00,2021/10/01 00:58:54+00,PRN-PCAP-0000000085,30.8,Summer,2021-Summer
6173783.52588914,1941107.90812773,34,691,691,2023/09/26 18:43:45+00,2023,Nisich Park,652,LOC-0615,-121.83391335,37.31823848,7,2,1.34,1.33,NEIG,"courts,picnic_areas,playgrounds,hardscapes,planting,turf,drinking_fountains,benches,developed_land,trees,waste_receptacles,water_management",1,,1,,1,1,,1,,1,1,1,,,,1,1,,1,1,1,2023/09/26 18:50:43+00,2023/09/26 18:50:43+00,PRN-PCAP-0000000691,,Summer,2023-Summer
6167955.30821489,1958079.13238731,35,289,289,2022/03/01 19:19:05+00,2022,Overfelt Gardens,404,LOC-0145,-121.85479821,37.36461471,5,8,32.04,32.04,REG,"picnic_areas,parking_lots,restrooms,benches,developed_land,trees,waste_receptacles,water_management,hardscapes,turf,planting,undeveloped_land",,,0.6667,,,0.4,,,,1,0.875,0.6667,0.8,0.75,,1,0.5,0.5,1,1,0.7632,2022/03/01 22:47:52+00,2022/03/01 22:47:52+00,PRN-PCAP-0000000289,24.4,Special,2022-Special
6158479.55813755,1952834.77246922,36,1384,1384,2025/09/08 20:22:15+00,2025,Joyce Ellington Branch Library,68,LOC-0062,-121.88713267,37.34983155,3,5,1.1,1.1,LIBR,"developed_land,trees,waste_receptacles,water_management,hardscapes,planting,parking_lots",,,,,,0.6,,,,1,,1,0.8,,,,0.6667,,1,1,0.86667143,2025/09/08 20:26:37+00,2025/09/08 20:26:37+00,PRN-PCAP-0000001384,37.7,Summer,2025-Summer
6171983.5754208,1943079.8812179,37,1349,1349,2025/09/05 14:48:31+00,2025,Turtle Rock Park,651,LOC-0200,-121.84019951,37.32358327,7,2,0.94,0.94,NEIG,"picnic_areas,playgrounds,hardscapes,turf,drinking_fountains,benches,trees,waste_receptacles,water_management",,,0.3333,,0.7143,,,0.25,,0.4167,0.5,,,,,,0.8333,,0.6667,1,0.5893,2025/09/05 15:32:28+00,2025/09/05 15:32:28+00,PRN-PCAP-0000001349,28.1,Special,2025-Special
6176566.53574306,1937511.17581989,38,516,516,2022/09/14 17:08:56+00,2022,Windmill Springs Park,720,LOC-0217,-121.82416908,37.30846969,7,4,4.69,4.42,NEIG,"picnic_areas,playgrounds,turf,benches,developed_land,trees,undeveloped_land,waste_receptacles,water_management",,,0,,1,0.6,,,,,0.875,,,,,1,0.6667,0.5,0,1,0.62685556,2022/09/14 17:21:36+00,2022/09/14 17:21:36+00,PRN-PCAP-0000000516,27.6,Summer,2022-Summer
6143064.14671122,1917121.20249231,39,415,415,2022/08/22 17:52:04+00,2022,Carolyn Norris Park,464,LOC-0663,-121.93827129,37.25111721,9,1,1.26,1.31,NEIG,"picnic_areas,playgrounds,hardscapes,planting,turf,benches,trees,waste_receptacles,water_management,drinking_fountains",,,1,,0.882,,,0.5,,1,1,1,,,,1,0.8333,,1,1,0.92153,2022/08/22 18:04:01+00,2022/08/22 18:04:01+00,PRN-PCAP-0000000415,84.7,Summer,2022-Summer
6191028.05143939,1939085.88690931,40,1997,1997,2025/11/13 20:58:06+00,2025,Village Square Branch Library,217,LOC-0439,-121.77452356,37.31334561,8,4,0.7,0.6,LIBR,"trees,waste_receptacles,water_management,hardscapes,planting",,,,,,,,,,1,,1,,,,,1,,1,1,1,2025/11/13 21:23:53+00,2025/11/13 21:23:53+00,PRN-PCAP-0000001997,91.2,Summer,2025-Summer
6165620.87784439,1929856.26166782,41,1722,1722,2025/10/02 18:44:30+00,2025,Vieira Park,657,LOC-0638,-121.86141731,37.28701649,7,2,1.53,1.56,NEIG,"picnic_areas,playgrounds,planting,turf,drinking_fountains,benches,trees,waste_receptacles,water_management,hardscapes",,,1,,1,,,0.25,,1,1,1,,,,1,1,,1,1,0.925,2025/10/02 18:43:17+00,2025/10/02 18:45:05+00,PRN-PCAP-0000001722,65.8,Summer,2025-Summer
6141574.46432313,1941484.39129864,42,811,811,2023/10/23 16:37:24+00,2023,Frank M. Santana Park,374,LOC-0179,-121.94468092,37.31795919,1,3,6.07,5.22,NEIG,"fields,picnic_areas,playgrounds,restrooms,hardscapes,planting,turf,drinking_fountains,developed_land,trees,undeveloped_land,waste_receptacles,water_management",,1,,,1,1,,1,,1,1,1,,1,,1,0.8333,1,1,1,0.98717692,2023/10/24 14:42:41+00,2023/10/24 14:42:41+00,PRN-PCAP-0000000811,,Summer,2023-Summer
6143308.60849264,1973687.15399273,43,1052,1052,2024/09/11 14:40:10+00,2024,Moitozo Park,569,LOC-0583,-121.94042263,37.40646595,4,8,6.03,6.08,NEIG,"picnic_areas,exercise_stations,parking_lots,hardscapes,planting,turf,benches,developed_land,trees,waste_receptacles,water_management,playgrounds",,,1,,1,1,,,1,1,1,1,1,,,1,1,,1,1,1,2024/09/11 15:39:18+00,2024/09/11 15:39:18+00,PRN-PCAP-0000001052,74.6,Summer,2024-Summer
6165584.75652556,1929529.46179648,44,1725,1725,2025/10/02 18:47:31+00,2025,Vieira Park Overlook,473,LOC-0643,-121.86152512,37.28611759,7,2,0.47,0.5,NEIG,"hardscapes,planting,turf,benches,trees,waste_receptacles,water_management",,,1,,,,,,,1,0.875,0.8333,,,,,0.8333,,1,1,0.9345,2025/10/02 18:57:26+00,2025/10/02 18:57:26+00,PRN-PCAP-0000001725,65.8,Special,2025-Special
6168322.92394947,1905717.20397489,45,739,739,2023/10/05 16:50:06+00,2023,Greystone Park,112,LOC-0081,-121.85093262,37.22083359,10,1,4.13,4.13,NEIG,"picnic_areas,playgrounds,restrooms,turf,benches,trees,waste_receptacles,water_management",,,1,,0.9445,,,,,,1,,,0.875,,1,1,,1,1,0.9774375,2023/10/05 17:21:29+00,2023/10/05 17:21:29+00,PRN-PCAP-0000000739,,Summer,2023-Summer
6194084.91966946,1939220.46931732,46,1964,1964,2025/11/12 19:26:24+00,2025,Fowler Creek Park,517,LOC-0626,-121.76401948,37.31382906,8,4,12.22,11.68,NEIG,"courts,picnic_areas,playgrounds,parking_lots,restrooms,hardscapes,planting,turf,drinking_fountains,benches,developed_land,trees,undeveloped_land,waste_receptacles,water_management",0.8167,,0,,0.71425,1,,0.5,,0.7917,0.875,0.6667,0.8,0.625,,,1,0.5,0.3333,1,0.6853,2025/11/12 20:32:01+00,2025/11/12 20:32:01+00,PRN-PCAP-0000001964,88.9,Special,2025-Special
6155792.44737005,1945066.63610265,47,658,658,2023/09/19 14:44:00+00,2023,Discovery Dog Park,494,LOC-0710,-121.89597738,37.32838921,6,5,0.43,0.45,DOG,"dog_areas,hardscapes,planting,benches,developed_land,trees,undeveloped_land,waste_receptacles,water_management",,,0.6667,,,1,0.4,,,1,,1,,,,,1,1,1,1,0.8963,2023/09/19 14:53:58+00,2023/09/19 14:53:58+00,PRN-PCAP-0000000658,,Summer,2023-Summer
6173892.73892531,1928921.98532115,48,1492,1492,2025/09/15 18:34:28+00,2025,Seven Trees Community Center,630,LOC-0184,-121.83294099,37.28477781,7,2,4.66,4.63,CC,"developed_land,trees,waste_receptacles,water_management,parking_lots,hardscapes,planting",,,,,,0.8,,,,1,,0.8333,0.8,,,,1,,1,1,0.91904286,2025/09/15 18:33:39+00,2025/09/15 18:35:56+00,PRN-PCAP-0000001492,14.7,Summer,2025-Summer
6160662.16433664,1910088.1850623,49,984,984,2024/09/06 17:44:09+00,2024,Jeffery Fontana Park,584,LOC-0079,-121.8774603,37.23253043,10,1,18.08,18.05,NEIG,"playgrounds,exercise_stations,hardscapes,planting,turf,drinking_fountains,benches,developed_land,trees,undeveloped_land,waste_receptacles,water_management,dog_areas",,,1,,0.9445,1,0.8,1,0.875,0.8333,0.625,0.5,,,,,0.6667,1,0.6667,1,0.83932308,2024/09/06 18:23:34+00,2024/09/06 18:23:34+00,PRN-PCAP-0000000984,92.1,Summer,2024-Summer
6192961.29068314,1916833.49965565,50,1125,1125,2024/09/13 20:36:22+00,2024,Piercy Park,636,LOC-0676,-121.76684081,37.25230767,2,2,0.85,0.85,NEIG,"picnic_areas,playgrounds,planting,turf,drinking_fountains,benches,trees,waste_receptacles,water_management",,,1,,1,,,0.5,,,1,0.5,,,,1,0.8333,,1,1,0.87036667,2024/09/13 20:44:47+00,2024/09/13 20:44:47+00,PRN-PCAP-0000001125,93,Summer,2024-Summer
6174832.96735981,1959463.57154757,51,479,479,2022/08/28 19:05:36+00,2022,Alum Rock Youth Center,432,NULL,-121.83120273,37.3686877,5,8,0.45,0.45,CC,"trees,waste_receptacles,water_management,hardscapes,planting,parking_lots",,,,,,,,,,1,,1,1,,,,1,,1,1,1,2022/08/28 19:07:42+00,2022/08/28 19:07:42+00,PRN-PCAP-0000000479,23,Summer,2022-Summer
6152863.49325421,1950455.52165031,52,1078,1078,2024/09/13 14:06:49+00,2024,Guadalupe Gardens - Historic Orchard,281,LOC-0708,-121.90632822,37.34306754,6,5,2.75,2.75,REG,"developed_land,trees,undeveloped_land,water_management",,,,,,0.8,,,,,,,,,,,0.6667,1,,1,0.866675,2024/09/13 14:12:27+00,2024/09/13 14:12:27+00,PRN-PCAP-0000001078,59.4,Summer,2024-Summer
6164940.22763088,1946582.51200789,53,757,757,2023/10/12 17:52:08+00,2023,Forestdale Tot Lot,756,LOC-0073,-121.86459502,37.33292261,3,2,0.54,0.55,NEIG,"playgrounds,hardscapes,turf,drinking_fountains,benches,developed_land,trees,waste_receptacles,water_management",,,1,,0.6667,0.8,,0.5,,1,1,,,,,,0.5,,1,1,0.82963333,2023/10/12 18:26:52+00,2023/10/12 18:26:52+00,PRN-PCAP-0000000757,,Summer,2023-Summer
6168127.13989222,1928835.88936473,54,1790,1790,2025/10/10 16:04:07+00,2025,William Lewis Manly Park,87,LOC-1080,-121.85275256,37.28431417,7,2,1.87,1.87,NEIG,"courts,picnic_areas,playgrounds,turf,benches,trees,waste_receptacles,water_management,drinking_fountains,hardscapes,planting",1,,1,,1,,,0.25,,1,1,1,,,,1,1,,1,1,0.93181818,2025/10/10 16:12:03+00,2025/10/10 16:12:03+00,PRN-PCAP-0000001790,65.8,Summer,2025-Summer
6146327.68808439,1946445.5828198,55,1788,1788,2025/10/10 15:13:10+00,2025,Municipal Rose Garden,369,LOC-0171,-121.92859789,37.33178375,6,3,10.64,10.67,NEIG,"restrooms,hardscapes,planting,turf,drinking_fountains,benches,developed_land,trees,waste_receptacles,water_management",,,1,,,0.6,,0.5,,1,1,1,,0.875,,,1,,1,1,0.8975,2025/10/10 15:36:34+00,2025/10/10 15:36:34+00,PRN-PCAP-0000001788,75.1,Summer,2025-Summer
6174227.99908155,1953217.7920444,56,1146,1146,2024/09/11 18:00:29+00,2024,Capitol Park,646,LOC-0039,-121.83297818,37.35151195,5,8,11.91,11.91,NEIG,"courts,fields,picnic_areas,playgrounds,exercise_stations,restrooms,hardscapes,planting,turf,benches,developed_land,trees,undeveloped_land,waste_receptacles,water_management",1,1,1,,0.8889,0.4,,,1,1,1,0.6667,,0.875,,1,1,1,0.6667,1,0.89982,2024/09/17 13:19:07+00,2024/09/17 13:19:07+00,PRN-PCAP-0000001146,9.2,Summer,2024-Summer
6156193.65063588,1941858.68024823,57,1461,1461,2025/09/12 16:54:05+00,2025,Biebrach Park and Gardner Community Center,489,LOC-0024,-121.8944333,37.31959606,6,3,5.58,5.56,NEIG,"courts,fields,picnic_areas,playgrounds,parking_lots,restrooms,hardscapes,planting,turf,drinking_fountains,benches,trees,waste_receptacles,water_management",1,0.6,1,,0.92855,,,1,,1,0.625,0.8333,1,0.875,,,1,,0.6667,1,0.8868,2025/09/12 17:13:06+00,2025/09/12 17:13:06+00,PRN-PCAP-0000001461,67.2,Special,2025-Special
6163980.96806647,1951479.65280415,58,676,676,2023/09/22 18:31:39+00,2023,East San Jose Carnegie Branch Library,196,LOC-0061,-121.86814025,37.34633257,3,5,0.66,0.65,LIBR,"benches,trees,waste_receptacles,water_management",,,0.6667,,,,,,,,,,,,,,1,,1,1,0.916675,2023/09/22 18:43:03+00,2023/09/22 18:43:03+00,PRN-PCAP-0000000676,,Summer,2023-Summer
6168127.13956414,1928835.88903664,59,13,13,2021/08/17 18:51:51+00,2021,William Lewis Manly Park,87,LOC-1080,-121.85275256,37.28431417,7,2,1.87,1.87,NEIG,"courts,picnic_areas,playgrounds,turf,benches,trees,waste_receptacles,water_management,hardscapes,planting,drinking_fountains",1,,1,,1,,,1,,1,1,1,,,,1,1,,0.6667,1,0.9697,2021/08/20 14:07:03+00,2021/10/01 01:55:03+00,PRN-PCAP-0000000013,65.8,Summer,2021-Summer
6156577.83917198,1914162.97546914,60,1892,1892,2025/11/05 20:43:54+00,2025,De Anza Park,465,LOC-0058,-121.89169599,37.24355458,9,1,8.26,8.3,NEIG,"courts,fields,picnic_areas,playgrounds,restrooms,hardscapes,turf,drinking_fountains,benches,developed_land,trees,waste_receptacles,water_management",0.9333,0.9046,1,,1,1,,0.5,,1,0.875,,,1,,1,1,,1,1,0.93945385,2025/11/05 21:04:25+00,2025/11/05 21:04:25+00,PRN-PCAP-0000001892,58,Summer,2025-Summer
6168352.37894306,1931829.7619859,61,1716,1716,2025/10/02 16:09:00+00,2025,Elaine Richardson Park,81,LOC-1068,-121.85212711,37.29254485,7,2,2.18,2.17,NEIG,"courts,picnic_areas,playgrounds,turf,drinking_fountains,benches,trees,waste_receptacles,water_management,hardscapes",1,,1,,1,,,0.25,,1,0.625,,,,,1,0.8333,,1,1,0.87083,2025/10/02 16:18:10+00,2025/10/02 16:18:10+00,PRN-PCAP-0000001716,65.8,Summer,2025-Summer
6154124.06389581,1941612.71125197,62,1455,1455,2025/09/12 15:57:41+00,2025,Gregory Tot Lot,507,LOC-0084,-121.90153687,37.31883568,6,3,0.16,0.16,NEIG,"playgrounds,planting,benches,trees,waste_receptacles,water_management,drinking_fountains",,,1,,1,,,0.25,,,,0.8333,,,,,1,,0.6667,1,0.8214,2025/09/12 15:56:29+00,2025/09/12 16:02:10+00,PRN-PCAP-0000001455,67.2,Special,2025-Special
6167333.82258122,1926703.99106948,63,1121,1121,2024/09/13 19:45:24+00,2024,Waterford Park,658,LOC-0219,-121.85537298,37.27842805,2,2,3.28,3.34,NEIG,"picnic_areas,playgrounds,exercise_stations,hardscapes,planting,turf,drinking_fountains,benches,developed_land,trees,waste_receptacles,water_management",,,0.6667,,0.875,1,,0.75,0.75,1,0.75,0.8333,,,,0.3333,0.8333,,1,1,0.81596667,2024/09/13 20:07:58+00,2024/09/13 20:07:58+00,PRN-PCAP-0000001121,46.5,Summer,2024-Summer
6168673.17095239,1921078.60271397,64,1111,1111,2024/09/13 17:57:59+00,2024,Vista Park,458,LOC-0207,-121.85049115,37.26303284,2,2,9.95,9.97,NEIG,"courts,fields,picnic_areas,playgrounds,parking_lots,restrooms,planting,turf,benches,developed_land,trees,waste_receptacles,water_management,drinking_fountains,hardscapes",1,0.8182,1,,0.5625,0.8,,0.75,,0.8334,0.875,1,1,0.875,,0.6667,0.8333,,1,1,0.86760667,2024/09/13 18:47:00+00,2024/09/13 18:47:00+00,PRN-PCAP-0000001111,55.2,Summer,2024-Summer
6167955.30821489,1958079.13238731,65,500,500,2022/08/30 20:05:19+00,2022,Overfelt Gardens,404,LOC-0145,-121.85479821,37.36461471,5,8,32.04,32.04,REG,"picnic_areas,parking_lots,restrooms,benches,developed_land,trees,undeveloped_land,waste_receptacles,water_management,drinking_fountains,hardscapes,planting",,,0,,,0.6,,0.5,,0.5,,0.5,0.8,0.375,,0.6667,0.8333,1,0.3333,1,0.59235833,2022/08/30 21:58:50+00,2022/08/30 21:58:50+00,PRN-PCAP-0000000500,24.4,Summer,2022-Summer
6184927.10826072,1951567.84226032,66,1011,1011,2024/09/09 15:56:47+00,2024,Fernish Park,179,LOC-0069,-121.79609454,37.3473936,8,4,5.88,5.88,NEIG,"picnic_areas,playgrounds,exercise_stations,planting,turf,benches,developed_land,trees,undeveloped_land,waste_receptacles,water_management",,,1,,0.7778,1,,,1,,0.875,0.6667,,,,1,0.8333,1,1,1,0.92298182,2024/09/09 16:29:19+00,2024/09/09 16:29:19+00,PRN-PCAP-0000001011,21.1,Summer,2024-Summer
6162482.01043446,1938972.45340915,67,1505,1505,2025/09/16 15:06:06+00,2025,Bellevue Park,469,LOC-0618,-121.8726652,37.31192529,7,3,1.97,2.01,NEIG,"courts,picnic_areas,playgrounds,hardscapes,planting,turf,benches,trees,waste_receptacles,water_management",1,,1,,0.6111,,,,,1,0.625,0.8333,,,,1,0.8333,,0.3333,1,0.8236,2025/09/16 16:01:18+00,2025/09/16 16:01:18+00,PRN-PCAP-0000001505,5.9,Summer,2025-Summer
6165266.95138688,1947476.40064006,68,297,297,2022/04/15 21:30:12+00,2022,Martin Park,757,LOC-0119,-121.86351617,37.33539047,3,2,8.43,8.51,NEIG,"fields,picnic_areas,playgrounds,turf,drinking_fountains,benches,developed_land,trees,waste_receptacles,water_management",,0.5,1,,0.875,0.8,,0.75,,,0.75,,,,,0.6667,1,,1,0,0.73417,2022/04/15 21:30:52+00,2022/04/15 21:30:52+00,PRN-PCAP-0000000297,5,Special,2022-Special
6164301.6203123,1920980.01990589,69,406,406,2022/08/19 14:43:44+00,2022,Erikson Park,457,LOC-0063,-121.86550643,37.26258789,9,1,1.03,1.91,NEIG,"picnic_areas,playgrounds,planting,turf,drinking_fountains,benches,developed_land,trees,waste_receptacles,water_management",,,0.6667,,0.5556,1,,1,,,1,1,,,,1,1,,0.6667,1,0.8889,2022/08/19 17:56:19+00,2022/08/19 17:56:19+00,PRN-PCAP-0000000406,47,Summer,2022-Summer
6175457.45397171,1951085.53187323,70,1668,1668,2025/09/29 18:12:56+00,2025,Sylvia Cassell Park,642,LOC-0041,-121.82864472,37.34570437,5,8,2.21,2.21,NEIG,"picnic_areas,playgrounds,hardscapes,planting,turf,drinking_fountains,benches,developed_land,trees,waste_receptacles,water_management",,,1,,0.6875,1,,1,,1,1,1,,,,1,1,,1,1,0.97159091,2025/09/29 19:08:14+00,2025/09/29 19:08:14+00,PRN-PCAP-0000001668,13.8,Summer,2025-Summer
6172941.25723247,1955483.63167281,71,1043,1043,2024/09/06 15:48:16+00,2024,LoBue Park,475,LOC-0106,-121.83751596,37.35768396,5,8,6.09,6.09,NEIG,"courts,picnic_areas,playgrounds,exercise_stations,hardscapes,planting,turf,drinking_fountains,benches,developed_land,trees,undeveloped_land,waste_receptacles,water_management",1,,1,,1,1,,0.75,1,1,0.375,1,,,,0.6667,1,1,0.6667,1,0.88988571,2024/09/11 15:38:55+00,2024/09/11 15:38:55+00,PRN-PCAP-0000001043,9.2,Summer,2024-Summer
6162509.67376497,1966805.10738939,72,1634,1634,2025/09/24 16:11:26+00,2025,Flickinger Park,570,LOC-0071,-121.87397511,37.38835972,4,8,14.45,13.53,NEIG,"courts,fields,picnic_areas,playgrounds,parking_lots,restrooms,hardscapes,turf,drinking_fountains,benches,developed_land,trees,waste_receptacles,water_management",0.8,0.3636,1,,0.875,0.8,,0.5,,0.8333,0.375,,1,0.75,,1,0.5,,1,0,0.69977857,2025/09/24 16:10:11+00,2025/09/24 16:12:27+00,PRN-PCAP-0000001634,54.8,Summer,2025-Summer
6123049.5709268,1935565.51140414,73,1830,1830,2025/10/22 19:19:28+00,2025,Rainbow Park,467,LOC-0166,-122.00804798,37.30090256,1,3,8.84,8.59,NEIG,"courts,picnic_areas,playgrounds,parking_lots,restrooms,hardscapes,planting,turf,drinking_fountains,benches,trees,waste_receptacles,water_management",0.8,,1,,0.9375,,,0.75,,1,0.375,1,1,1,,,0.8333,,1,0,0.808,2025/10/22 19:37:50+00,2025/10/22 19:37:50+00,PRN-PCAP-0000001830,95.8,Special,2025-Special
6157226.7427298,1910208.19892989,74,766,766,2023/10/12 20:10:43+00,2023,T.J. Martin Park,587,LOC-0198,-121.88926534,37.23272054,10,1,18.37,15.75,NEIG,"playgrounds,planting,turf,drinking_fountains,benches,developed_land,trees,undeveloped_land,waste_receptacles,water_management",,,1,,0.875,0.2,,1,,,0.625,0.8333,,,,,1,1,1,1,0.85333,2023/10/13 21:15:35+00,2023/10/13 21:15:35+00,PRN-PCAP-0000000766,,Summer,2023-Summer
6162071.22221406,1943117.85751989,75,1503,1503,2025/09/16 14:54:30+00,2025,Bestor Art Park,503,LOC-0600,-121.87428686,37.32329275,3,2,0.79,0.8,NEIG,"courts,picnic_areas,playgrounds,hardscapes,planting,turf,drinking_fountains,benches,trees,waste_receptacles,water_management",0.8333,,1,,1,,,0.5,,0.875,0.875,1,,,,,1,,0.6667,1,0.875,2025/09/16 15:04:48+00,2025/09/16 15:04:48+00,PRN-PCAP-0000001503,12.9,Special,2025-Special
6176629.23082764,1943844.6001609,76,615,615,2023/09/08 17:10:35+00,2023,Welch Park,170,LOC-0212,-121.82426167,37.32586497,8,4,10.23,10.23,NEIG,"fields,picnic_areas,dog_areas,playgrounds,turf,benches,developed_land,trees,waste_receptacles,water_management,drinking_fountains",,0.7273,1,,0.5278,0.8,0.6,0.5,,,0.75,,,,,0.3333,0.6667,,0.3333,1,0.65803636,2023/09/08 18:19:22+00,2023/09/08 18:19:22+00,PRN-PCAP-0000000615,,Summer,2023-Summer
6155217.17555472,1949998.92774722,77,1957,1957,2025/11/07 18:59:03+00,2025,Ryland Dog Park,24,LOC-0671,-121.89820911,37.34191052,3,5,0.18,0.18,DOG,"dog_areas,hardscapes,drinking_fountains,benches,developed_land,trees,undeveloped_land,waste_receptacles,water_management",,,1,,,1,0.8889,0.75,,1,,,,,,,1,1,1,1,0.9599,2025/11/12 20:06:56+00,2025/11/12 20:06:56+00,PRN-PCAP-0000001957,49.7,Special,2025-Special
6166706.0092043,1974595.9855084,78,1612,1612,2025/09/23 14:26:26+00,2025,Berryessa Creek Park,387,LOC-0018,-121.85992236,37.40992312,4,8,11.3,7.14,NEIG,"fields,picnic_areas,playgrounds,exercise_stations,hardscapes,turf,drinking_fountains,benches,developed_land,trees,waste_receptacles,water_management",,0.4545,1,,0.5,0.8,,1,0.625,0.7917,0.5,,,,,,0.8333,,0.6667,0,0.6519,2025/09/23 15:14:11+00,2025/09/23 15:14:11+00,PRN-PCAP-0000001612,72.8,Special,2025-Special
6172079.46728939,1968640.1135619,79,849,849,2023/10/26 17:12:22+00,2023,Berryessa Branch Library,395,LOC-0020,-121.84112942,37.39378022,4,8,2.98,2.98,LIBR,"developed_land,trees,undeveloped_land,waste_receptacles,water_management,parking_lots",,,,,,0,,,,,,,0.8,,,,0.3333,0.5,0.3333,1,0.49443333,2023/10/26 17:26:36+00,2023/10/26 17:26:36+00,PRN-PCAP-0000000849,,Summer,2023-Summer
6158479.55813755,1952834.77246922,80,1059,1059,2024/09/11 17:58:24+00,2024,Joyce Ellington Branch Library,68,LOC-0062,-121.88713267,37.34983155,3,5,1.1,1.1,LIBR,"developed_land,trees,waste_receptacles,water_management,parking_lots,planting",,,,,,1,,,,,,1,1,,,,1,,1,1,1,2024/09/11 18:08:07+00,2024/09/11 18:08:07+00,PRN-PCAP-0000001059,37.7,Summer,2024-Summer
6149905.52607305,1921831.64943622,81,1860,1860,2025/11/04 21:29:39+00,2025,Cambrian Branch Library,9,LOC-0036,-121.91501359,37.26433927,9,1,1.65,1.65,LIBR,"trees,waste_receptacles,water_management,hardscapes,planting,parking_lots",,,,,,,,,,1,,0.6667,1,,,,0.8333,,0.6667,1,0.86111667,2025/11/04 21:42:01+00,2025/11/04 21:42:01+00,PRN-PCAP-0000001860,56.6,Summer,2025-Summer
6171081.40465297,1953408.83693789,82,1045,1045,2024/09/06 16:25:57+00,2024,Mayfair Park,739,LOC-0121,-121.84381185,37.35191301,5,8,4.21,4.21,NEIG,"picnic_areas,playgrounds,parking_lots,planting,turf,benches,developed_land,trees,undeveloped_land,waste_receptacles,water_management,drinking_fountains,hardscapes,restrooms,skate_parks",,,1,,1,1,,1,,1,0.875,0.6667,1,0,1,0.6667,1,1,0.6667,1,0.85834,2024/09/11 15:39:03+00,2024/09/11 15:39:03+00,PRN-PCAP-0000001045,2.3,Summer,2024-Summer
6169822.29168564,1898655.92971164,83,938,938,2024/09/06 16:29:33+00,2024,Cathedral Oaks Park,350,LOC-0597,-121.84543519,37.20150127,10,1,16.97,0,NEIG,"developed_land,undeveloped_land,waste_receptacles,water_management",,,,,,1,,,,,,,,,,,,1,1,1,1,2024/09/06 16:39:18+00,2024/09/06 16:39:18+00,PRN-PCAP-0000000938,97.2,Summer,2024-Summer
6118118.65198289,1936227.01172157,84,451,451,2022/08/24 17:17:20+00,2022,Calabazas Park,466,LOC-0033,-122.02503534,37.30249966,1,3,17.31,15.12,NEIG,"courts,fields,picnic_areas,bike_parks,playgrounds,parking_lots,restrooms,hardscapes,planting,turf,drinking_fountains,benches,developed_land,trees,undeveloped_land,waste_receptacles,water_management",0.95,0.6364,1,1,0.9583,0.6,,0.75,,1,0.5,1,1,1,,1,1,1,1,1,0.90557059,2022/08/24 18:22:14+00,2022/08/24 18:22:14+00,PRN-PCAP-0000000451,79.2,Summer,2022-Summer
6172752.81535214,1902284.75677156,85,259,259,2021/09/21 19:45:53+00,2021,Carrabelle Park,579,LOC-0040,-121.83555223,37.21158203,10,1,4.45,4.45,NEIG,"picnic_areas,playgrounds,planting,turf,drinking_fountains,benches,developed_land,trees,undeveloped_land,waste_receptacles,water_management,hardscapes",,,0.6667,,0.875,1,,1,,1,0.625,1,,,,0.6667,0.8333,1,0.6667,1,0.86111667,2021/09/21 20:46:57+00,2021/10/01 00:58:58+00,PRN-PCAP-0000000259,94.4,Summer,2021-Summer
6159655.91175596,1960296.89468406,86,1574,1574,2025/09/19 19:24:10+00,2025,Bruzzone Park,566,LOC-1053,-121.88346564,37.37037161,4,8,3.68,0,NEIG,"dog_areas,benches,trees,waste_receptacles,water_management,hardscapes,turf",,,1,,,,1,,,1,1,,,,,,0.5,,1,1,0.92857143,2025/09/19 19:19:28+00,2025/09/19 19:26:09+00,PRN-PCAP-0000001574,67.7,Summer,2025-Summer
6175769.58523722,1958142.44295622,87,1041,1041,2024/09/06 17:42:10+00,2024,Dr. Roberto Cruz Alum Rock Branch Library,255,LOC-0756,-121.82791553,37.36509617,5,8,1.83,1.86,LIBR,"drinking_fountains,benches,developed_land,trees,undeveloped_land,waste_receptacles,water_management",,,0,,,1,,1,,,,,,,,,1,1,0.3333,1,0.7619,2024/09/11 15:38:39+00,2024/09/11 15:38:39+00,PRN-PCAP-0000001041,9.6,Summer,2024-Summer
6132459.5422643,1927621.67558581,88,87,87,2021/09/01 19:04:24+00,2021,San Tomas Park,560,LOC-0180,-121.97526992,37.27949968,1,3,5.08,5.07,NEIG,"courts,picnic_areas,playgrounds,planting,turf,benches,developed_land,trees,undeveloped_land,waste_receptacles,water_management,restrooms",0.8,,0.6667,,0.9445,1,,,,,0.625,1,,0.875,,1,1,1,1,1,0.90926667,2021/09/01 19:19:52+00,2021/10/01 00:58:54+00,PRN-PCAP-0000000087,87.5,Summer,2021-Summer
6159280.32162789,1953698.86096415,89,1058,1058,2024/09/11 16:10:32+00,2024,Backesto Park,504,LOC-0015,-121.88442211,37.35223705,3,5,11.44,11.34,NEIG,"courts,fields,picnic_areas,playgrounds,planting,turf,drinking_fountains,benches,developed_land,trees,undeveloped_land,waste_receptacles,water_management,restrooms,exercise_stations,hardscapes",0.875,0.7,1,,0.9445,1,,1,0.75,1,0.75,1,,1,,0.6667,1,1,1,1,0.9178875,2024/09/11 17:51:00+00,2024/09/11 17:51:00+00,PRN-PCAP-0000001058,37.7,Summer,2024-Summer
6179732.41753463,1923027.24317364,90,1476,1476,2025/09/15 15:52:29+00,2025,Edenvale Community Center,146,LOC-0667,-121.81258625,37.26881634,2,2,1.83,1.87,JU,"benches,trees,waste_receptacles,water_management,planting,drinking_fountains,hardscapes,parking_lots",,,1,,,,,0.5,,1,,0.6667,1,,,,0.8333,,1,1,0.875,2025/09/15 16:09:09+00,2025/09/15 16:09:09+00,PRN-PCAP-0000001476,29,Summer,2025-Summer
6172959.03934914,1968658.7198239,91,1900,1900,2025/11/04 20:15:55+00,2025,Noble House,407,LOC-0369,-121.83810291,37.39386589,4,8,0.42,0.42,CC,"parking_lots,trees,water_management,hardscapes,planting",,,,,,,,,,1,,1,0.8,,,,1,,,1,0.96,2025/11/06 00:04:49+00,2025/11/06 00:04:49+00,PRN-PCAP-0000001900,38.2,Special,2025-Special
6174832.96735981,1959463.57154757,92,247,247,2021/09/17 20:53:34+00,2021,Alum Rock Youth Center,432,NULL,-121.83120273,37.3686877,5,8,0.45,0.45,CC,"developed_land,trees,waste_receptacles,water_management,hardscapes",,,,,,1,,,,1,,,,,,,1,,0.6667,1,0.93334,2021/09/17 20:58:05+00,2021/10/01 00:58:58+00,PRN-PCAP-0000000247,23,Summer,2021-Summer
6180859.39657989,1912764.64624481,93,353,353,2022/08/11 15:15:57+00,2022,Palmia Park,484,LOC-0161,-121.80822074,37.24067644,2,1,4.44,4.46,NEIG,"courts,picnic_areas,playgrounds,hardscapes,planting,turf,benches,trees,waste_receptacles,water_management",1,,1,,0.8889,,,,,1,0.625,1,,,,1,1,,1,1,0.95139,2022/08/11 15:37:04+00,2022/08/11 15:37:04+00,PRN-PCAP-0000000353,83.4,Summer,2022-Summer
6157760.53857823,1956981.26352006,94,789,789,2023/10/19 17:37:00+00,2023,Luna Park,107,LOC-0675,-121.88981785,37.36118921,3,5,1.26,1.14,NEIG,"picnic_areas,playgrounds,planting,turf,drinking_fountains,benches,developed_land,trees,waste_receptacles,water_management",,,1,,0.8889,1,,0.75,,,1,0.8333,,,,1,1,,1,1,0.94722,2023/10/19 17:55:22+00,2023/10/19 17:55:22+00,PRN-PCAP-0000000789,,Summer,2023-Summer
6158591.1947253,1906222.64620547,95,755,755,2023/10/11 17:38:32+00,2023,Almaden Meadows Park,782,LOC-0008,-121.88437662,37.22183103,10,1,15.09,6.57,NEIG,"picnic_areas,playgrounds,hardscapes,planting,turf,drinking_fountains,benches,developed_land,trees,undeveloped_land,waste_receptacles,water_management",,,1,,1,1,,1,,1,0.375,0.1667,,,,0.6667,1,1,0.3333,1,0.79514167,2023/10/11 18:09:28+00,2023/10/11 18:09:28+00,PRN-PCAP-0000000755,,Summer,2023-Summer
6170779.33340672,1941005.35616748,96,1069,1069,2024/09/12 17:03:09+00,2024,Shirakawa Community Center,750,LOC-0075,-121.84423806,37.3178388,7,2,2.65,2.65,CC,"parking_lots,planting,turf,developed_land,trees,undeveloped_land,water_management,benches",,,0.6667,,,0.8,,,,,1,0.5,0.8,,,,0.6667,1,,0,0.679175,2024/09/12 17:33:45+00,2024/09/12 17:33:45+00,PRN-PCAP-0000001069,31.7,Summer,2024-Summer
6194084.91966946,1939220.46931732,97,1963,1963,2025/11/12 20:29:52+00,2025,Fowler Creek Park,517,LOC-0626,-121.76401948,37.31382906,8,4,12.22,11.68,NEIG,"courts,picnic_areas,playgrounds,parking_lots,restrooms,hardscapes,planting,turf,drinking_fountains,benches,developed_land,trees,undeveloped_land,waste_receptacles,water_management",0.8167,,0,,0.7084,1,,0.25,,0.7917,0.875,0.6667,0.8,0.625,,0.6667,1,0.5,0.3333,1,0.6689,2025/11/12 20:31:02+00,2025/11/12 20:31:02+00,PRN-PCAP-0000001963,88.9,Summer,2025-Summer
6167144.82394347,1958455.31044073,98,15,15,2021/08/20 16:58:45+00,2021,Educational Park Branch Library,406,LOC-0273,-121.85760552,37.36561551,4,8,1.78,2.02,LIBR,"developed_land,trees,waste_receptacles,water_management",,,,,,0.6,,,,,,,,,,,0.5,,0.6667,1,0.691675,2021/08/20 17:40:26+00,2021/10/01 00:58:52+00,PRN-PCAP-0000000015,24.4,Summer,2021-Summer
6165914.30737564,1942581.89369681,99,1758,1758,2025/10/06 17:01:35+00,2025,Kelley Park - Japanese Friendship Garden,686,LOC-0102,-121.86104493,37.32197515,7,2,8.64,8.43,REG,"restrooms,benches,trees,waste_receptacles,water_management,turf,hardscapes,planting",,,1,,,,,,,1,0.875,0.8333,,1,,,0.8333,,1,1,0.9427,2025/10/06 17:41:32+00,2025/10/06 17:41:32+00,PRN-PCAP-0000001758,8.7,Special,2025-Special
6123049.5709268,1935565.51140414,100,38,38,2021/08/25 16:32:13+00,2021,Rainbow Park,467,LOC-0166,-122.00804798,37.30090256,1,3,8.84,8.59,NEIG,"courts,picnic_areas,playgrounds,restrooms,hardscapes,turf,drinking_fountains,benches,trees,waste_receptacles,water_management",1,,0.3333,,0.4444,,,0.75,,1,0.5,,,0.375,,0,0.1667,,0.3333,1,0.53660909,2021/08/25 17:08:30+00,2021/10/01 00:58:53+00,PRN-PCAP-0000000038,95.8,Summer,2021-Summer
6168673.17095239,1921078.60271397,101,76,76,2021/09/29 18:59:34+00,2021,Vista Park,458,LOC-0207,-121.85049115,37.26303284,2,2,9.95,9.97,NEIG,"courts,fields,picnic_areas,playgrounds,parking_lots,planting,turf,benches,developed_land,trees,waste_receptacles,water_management,drinking_fountains,hardscapes,restrooms",1,0.7273,1,,0.882,1,,0.5,,1,0.625,1,1,1,,1,0.6667,,1,1,0.8934,2021/09/01 16:23:02+00,2021/10/01 15:38:28+00,PRN-PCAP-0000000076,55.2,Summer,2021-Summer
6177889.08263864,1919649.6387084,102,1428,1428,2025/09/11 15:52:38+00,2025,Chynoweth Park,143,LOC-0047,-121.81875675,37.25946957,2,2,2.63,2.65,NEIG,"picnic_areas,playgrounds,hardscapes,planting,turf,drinking_fountains,benches,trees,waste_receptacles,water_management",,,0.6667,,0.75,,,0.25,,0.875,0.375,0.1667,,,,1,1,,1,1,0.70834,2025/09/11 16:06:48+00,2025/09/11 16:06:48+00,PRN-PCAP-0000001428,73.2,Summer,2025-Summer
6178007.83765048,1938851.49466155,103,487,487,2022/08/29 17:48:44+00,2022,Barberry Lane Walkway - Reach C (BAR03),511,LOC-0770,-121.81927882,37.31220638,7,4,2.13,2.25,NEIG,"benches,developed_land,trees,undeveloped_land,water_management",,,0.6667,,,0.8,,,,,,,,,,,0.8333,1,,1,0.86,2022/08/29 17:53:45+00,2022/08/29 17:53:45+00,PRN-PCAP-0000000487,21.6,Summer,2022-Summer
6185803.30926423,1932662.84365305,104,404,404,2022/08/19 19:14:13+00,2022,Silver Creek Linear Park,778,LOC-0181,-121.79218261,37.29550976,8,4,52.9,6.57,NEIG,"courts,picnic_areas,exercise_stations,parking_lots,restrooms,turf,benches,developed_land,trees,undeveloped_land,waste_receptacles,water_management",0.9,,1,,,0.8,,,0.375,,0.5,,1,0.375,,0.3333,0.8333,1,1,1,0.75971667,2022/08/19 19:40:33+00,2022/08/19 19:40:33+00,PRN-PCAP-0000000404,93.5,Summer,2022-Summer
6175070.36517897,1933297.35846014,105,694,694,2023/09/26 19:05:55+00,2023,Lone Bluff Park,709,LOC-0602,-121.82910717,37.29683946,7,2,0.8,0.74,NEIG,"courts,playgrounds,hardscapes,planting,turf,benches,trees,waste_receptacles,water_management",1,,0.6667,,0.8334,,,,,1,0.625,1,,,,,1,,1,1,0.90278889,2023/09/26 19:22:01+00,2023/09/26 19:22:01+00,PRN-PCAP-0000000694,,Summer,2023-Summer
6155009.90431572,1947369.46778306,106,212,212,2021/09/29 16:26:55+00,2021,Guadalupe River Park - Arena Green (East Confluence),315,LOC-0754,-121.89878684,37.33468108,6,5,10.34,10.02,REG,"courts,benches,developed_land,trees,undeveloped_land,waste_receptacles,water_management",0.8333,,0.6667,,,0.8,,,,,,,,,,,1,1,1,1,0.9,2021/09/16 19:27:05+00,2021/09/29 16:27:42+00,PRN-PCAP-0000000212,55.7,Summer,2021-Summer
6172455.18799464,1937276.96336181,107,1925,1925,2025/11/06 17:10:06+00,2025,Stonegate Park,713,LOC-0195,-121.8382924,37.30766588,7,4,3.2,2.65,NEIG,"picnic_areas,playgrounds,turf,drinking_fountains,benches,developed_land,trees,undeveloped_land,waste_receptacles,water_management,skate_parks,hardscapes",,,0,,0.7381,0.8,,1,,1,0.625,,,,0.4286,,1,1,1,1,0.7828,2025/11/07 17:12:47+00,2025/11/07 17:12:47+00,PRN-PCAP-0000001925,27.6,Special,2025-Special
6127606.00964856,1938541.28629248,108,47,47,2021/08/25 19:08:54+00,2021,Gullo Park,61,LOC-0086,-121.99254805,37.30927501,1,3,0.54,0.55,NEIG,"picnic_areas,planting,turf,drinking_fountains,benches,developed_land,trees,undeveloped_land,waste_receptacles,water_management",,,1,,,1,,1,,,1,1,,,,1,1,1,1,1,1,2021/08/25 19:10:44+00,2021/10/01 00:58:53+00,PRN-PCAP-0000000047,62.6,Summer,2021-Summer
6152245.07585588,1917755.99256131,109,1896,1896,2025/11/05 21:09:46+00,2025,Branham Park,461,LOC-0029,-121.90676451,37.25324371,9,1,4.67,4.64,NEIG,"courts,picnic_areas,playgrounds,exercise_stations,hardscapes,planting,turf,drinking_fountains,benches,trees,waste_receptacles,water_management,developed_land",1,,1,,0.92855,1,,1,0.875,1,0.625,0.8333,,,,,1,,1,1,0.9405,2025/11/05 21:26:16+00,2025/11/05 21:26:16+00,PRN-PCAP-0000001896,56.6,Special,2025-Special
6152577.91475713,1950768.0725344,110,626,626,2023/09/12 17:36:37+00,2023,Guadalupe Gardens - Heritage Rose Garden,290,LOC-0708,-121.90732666,37.34391407,6,5,4.21,4.23,REG,"drinking_fountains,benches,developed_land,trees,undeveloped_land,waste_receptacles,water_management,planting",,,1,,,0.6,,1,,,,0.6667,,,,,1,1,0.6667,0,0.741675,2023/09/12 17:35:04+00,2023/09/12 17:41:09+00,PRN-PCAP-0000000626,,Summer,2023-Summer
6175046.20709081,1952613.40972298,111,491,491,2022/08/29 20:19:37+00,2022,Our Park,474,LOC-0144,-121.830134,37.34988417,5,8,0.49,0.49,NEIG,"turf,developed_land,undeveloped_land,waste_receptacles,water_management",,,,,,1,,,,,0.625,,,,,,,1,1,1,0.925,2022/08/29 20:35:28+00,2022/08/29 20:35:28+00,PRN-PCAP-0000000491,9.2,Summer,2022-Summer
6185785.02485198,1932664.32626164,112,990,990,2024/09/06 18:48:00+00,2024,Silver Creek Linear Park,778,LOC-0181,-121.79224553,37.29551314,8,4,53.8,11.9,NEIG,"restrooms,turf,developed_land,trees,waste_receptacles,water_management,courts,drinking_fountains,exercise_stations,parking_lots",1,,,,,1,,0.5,1,,1,,1,0.75,,,1,,1,1,0.925,2024/09/06 18:42:42+00,2024/09/06 18:49:03+00,PRN-PCAP-0000000990,93.5,Summer,2024-Summer
6172663.80995272,1965592.03370006,113,685,685,2023/09/25 22:05:41+00,2023,Cimarron Park,388,LOC-0048,-121.83896804,37.38543261,5,8,6.56,6.56,NEIG,"courts,picnic_areas,playgrounds,turf,drinking_fountains,benches,developed_land,trees,undeveloped_land,waste_receptacles,water_management",1,,1,,0.875,1,,0.25,,,0.625,,,,,0.6667,0.6667,1,1,1,0.82576364,2023/09/25 22:20:16+00,2023/09/25 22:20:16+00,PRN-PCAP-0000000685,,Summer,2023-Summer
6170420.46502997,1923142.81807372,114,1486,1486,2025/09/15 16:45:25+00,2025,Parkview II Park,19,LOC-0150,-121.84458951,37.26877067,2,2,2.79,2.81,NEIG,"playgrounds,exercise_stations,hardscapes,planting,turf,drinking_fountains,benches,trees,waste_receptacles,water_management,developed_land",,,1,,0.9375,1,,0.5,0.875,1,0.75,0.8333,,,,,0.5,,1,1,0.85416364,2025/09/15 17:09:12+00,2025/09/15 17:09:12+00,PRN-PCAP-0000001486,44.2,Summer,2025-Summer
6160811.88877472,1927426.19467756,115,49,49,2021/08/25 18:43:07+00,2021,Rubino Park,49,LOC-0174,-121.87782282,37.28014979,9,2,3.39,3.4,NEIG,"courts,picnic_areas,playgrounds,hardscapes,planting,turf,drinking_fountains,benches,developed_land,trees,waste_receptacles,water_management",1,,1,,0.7014,0.8,,0.75,,0.75,0.75,0.8333,,,,0.3333,0.8333,,1,1,0.81260833,2021/08/25 19:22:43+00,2021/10/01 00:58:53+00,PRN-PCAP-0000000049,45.6,Summer,2021-Summer
6168322.92394947,1905717.20430298,116,264,264,2021/09/22 17:19:20+00,2021,Greystone Park,112,LOC-0081,-121.85093262,37.22083359,10,1,4.13,4.13,NEIG,"benches,developed_land,trees,undeveloped_land,waste_receptacles,water_management,playgrounds,drinking_fountains,hardscapes,turf,planting,restrooms,picnic_areas",,,0.3333,,0.882,1,,1,,1,0.625,1,,0.625,,0.3333,0.8333,1,0.3333,1,0.76655385,2021/09/22 19:46:00+00,2021/10/01 15:38:28+00,PRN-PCAP-0000000264,90.3,Summer,2021-Summer
6152245.07585588,1917755.99256131,117,1897,1897,2025/11/05 21:09:43+00,2025,Branham Park,461,LOC-0029,-121.90676451,37.25324371,9,1,4.67,4.64,NEIG,"courts,picnic_areas,playgrounds,exercise_stations,hardscapes,planting,turf,drinking_fountains,benches,developed_land,trees,waste_receptacles,water_management",1,,1,,0.9375,1,,1,0.75,1,0.875,1,,,,1,1,,1,1,0.96634615,2025/11/05 21:28:03+00,2025/11/05 21:28:03+00,PRN-PCAP-0000001897,56.6,Summer,2025-Summer
6156501.64870755,1941242.0046443,118,814,814,2023/10/23 18:42:21+00,2023,Fuller Avenue Park,502,LOC-0616,-121.89334268,37.31791516,6,3,1.33,1.36,NEIG,"turf,benches,developed_land,trees,undeveloped_land,waste_receptacles,water_management",,,1,,,1,,,,,1,,,,,,1,1,1,1,1,2023/10/24 14:42:46+00,2023/10/24 14:42:46+00,PRN-PCAP-0000000814,,Summer,2023-Summer
6118118.65198289,1936227.01172157,119,1321,1321,2025/09/03 17:46:17+00,2025,Calabazas Park,466,LOC-0033,-122.02503534,37.30249966,1,3,17.31,15.12,NEIG,"benches,developed_land,trees,waste_receptacles,water_management,bike_parks,courts,fields,picnic_areas,restrooms,parking_lots,hardscapes,drinking_fountains,turf,playgrounds",0.9,0.1818,1,0.75,1,0,,0.75,,0.375,0,,1,0.625,,0.3333,0.3333,,0,0,0.48322667,2025/09/03 17:46:57+00,2025/09/03 17:46:57+00,PRN-PCAP-0000001321,79.2,Summer,2025-Summer
6154124.06389581,1941612.71125197,120,1279,1279,2024/09/06 19:20:07+00,2024,Gregory Tot Lot,507,LOC-0084,-121.90153687,37.31883568,6,3,0.16,0.16,NEIG,"playgrounds,benches,developed_land,trees,undeveloped_land,waste_receptacles,water_management,turf",,,0.6667,,0.7778,0.8,,,,,0.875,,,,,,0.8333,1,0.6667,0,0.7024375,2024/09/06 19:35:14+00,2024/09/06 19:35:14+00,PRN-PCAP-0000001279,67.2,Summer,2024-Summer
6131325.60293114,1933892.34217831,121,670,670,2023/09/22 16:55:13+00,2023,Hathaway Park,559,LOC-0092,-121.97950752,37.29667061,1,3,6.68,6.61,NEIG,"restrooms,benches,developed_land,trees,undeveloped_land,waste_receptacles,water_management,drinking_fountains,exercise_stations,hardscapes,turf,picnic_areas,courts,fields,playgrounds",1,0.4545,1,,0.7014,1,,1,0.875,1,0.625,,,0.875,,0.3333,0.6667,0.5,1,1,0.80206,2023/09/22 17:56:57+00,2023/09/22 17:56:57+00,PRN-PCAP-0000000670,,Summer,2023-Summer
6164608.75421247,1958619.2989579,122,1169,1169,2024/09/20 16:19:33+00,2024,Newbury Park,410,LOC-1061,-121.86633941,37.36596448,3,8,1,1,NEIG,"picnic_areas,playgrounds,benches,trees,waste_receptacles,water_management,drinking_fountains,planting,turf",,,1,,1,,,1,,,0.875,1,,,,1,1,,1,1,0.98611111,2024/09/20 16:31:47+00,2024/09/20 16:31:47+00,PRN-PCAP-0000001169,0.4,Summer,2024-Summer
6178138.95713888,1927758.45254323,123,1356,1356,2025/09/05 18:37:56+00,2025,Melody Park,659,LOC-0127,-121.81829072,37.28174771,2,2,3.64,3.62,NEIG,"picnic_areas,playgrounds,planting,turf,drinking_fountains,benches,trees,waste_receptacles,water_management,hardscapes",,,1,,0.5714,,,0.5,,0.75,0.25,1,,,,,0.8333,,0.6667,1,0.7302,2025/09/05 18:36:36+00,2025/09/05 18:37:28+00,PRN-PCAP-0000001356,30.4,Special,2025-Special
6144646.17996447,1921777.28405939,124,94,94,2021/09/02 15:15:13+00,2021,Camden Park and Community Center,759,LOC-0743,-121.93308145,37.26397019,9,1,10.26,6.25,NEIG,"courts,fields,picnic_areas,playgrounds,parking_lots,benches,trees,undeveloped_land,waste_receptacles,water_management,drinking_fountains,hardscapes,turf,planting,developed_land",1,0.8637,0.6667,,0.625,1,,1,,0.83335,0.875,0.5,1,,,0.6667,0.8333,0.5,0.6667,1,0.80203,2021/09/02 17:17:57+00,2021/10/01 00:58:54+00,PRN-PCAP-0000000094,66.8,Summer,2021-Summer
6149432.92826498,1925255.45033139,125,1200,1200,2024/09/26 16:52:23+00,2024,Doerr Park,384,LOC-0059,-121.91681551,37.27372195,9,3,11.64,10.99,NEIG,"courts,fields,picnic_areas,playgrounds,restrooms,planting,turf,drinking_fountains,benches,trees,waste_receptacles,water_management,hardscapes",0.8334,0.85,1,,0.7223,,,0.75,,1,0.625,1,,1,,0.6667,0.6667,,1,1,0.85493077,2024/09/26 18:07:22+00,2024/09/26 18:07:22+00,PRN-PCAP-0000001200,89.4,Summer,2024-Summer
6174227.99908155,1953217.7920444,126,603,603,2023/08/30 14:33:00+00,2023,Capitol Park,646,LOC-0039,-121.83297818,37.35151195,5,8,11.91,11.91,NEIG,"courts,fields,picnic_areas,playgrounds,exercise_stations,restrooms,hardscapes,planting,turf,benches,developed_land,trees,waste_receptacles,water_management",0.8333,0.8637,1,,0.25,0.8,,,0.625,1,0.875,0.8333,,0.375,,1,0.6667,,1,1,0.79442857,2023/08/30 14:33:24+00,2023/08/30 14:33:24+00,PRN-PCAP-0000000603,,Summer,2023-Summer
6171489.4268028,1938320.5226264,127,1155,1155,2024/09/17 19:48:10+00,2024,Tully Community Ballfields,708,LOC-0593,-121.8416641,37.31049372,7,4,10.65,10.18,SPRT,"fields,picnic_areas,dog_areas,parking_lots,restrooms,hardscapes,planting,turf,drinking_fountains,benches,developed_land,trees,undeveloped_land,waste_receptacles,water_management",,0.5455,0.6667,,,0.8,0.6,0.5,,0.75,0.5,0.8333,0.8,0.875,,0.6667,0.8333,0.5,0.6667,1,0.70248,2024/09/17 20:21:40+00,2024/09/17 20:21:40+00,PRN-PCAP-0000001155,27.6,Summer,2024-Summer
6123053.92131181,1935599.59171656,128,652,652,2023/09/19 19:00:25+00,2023,Rainbow Park,467,LOC-0166,-122.00804798,37.30090256,1,3,8.84,8.59,NEIG,"courts,picnic_areas,playgrounds,parking_lots,restrooms,hardscapes,planting,turf,drinking_fountains,benches,developed_land,trees,undeveloped_land,waste_receptacles,water_management",1,,1,,0.9445,0.6,,1,,1,0.75,1,1,0.75,,0.6667,0.6667,1,1,1,0.89186,2023/09/19 19:28:43+00,2023/09/19 19:28:43+00,PRN-PCAP-0000000652,,Summer,2023-Summer
6182811.05048497,1936662.33237323,129,526,526,2022/09/14 17:32:01+00,2022,Brigadoon Park,634,LOC-0028,-121.80265966,37.30637928,8,4,5.64,5.71,NEIG,"picnic_areas,playgrounds,planting,turf,drinking_fountains,benches,developed_land,trees,undeveloped_land,waste_receptacles,water_management",,,0.6667,,0.875,0.8,,1,,,0.625,0.8333,,,,0.6667,0.6667,0.5,0.6667,1,0.75455455,2022/09/14 17:43:49+00,2022/09/14 17:43:49+00,PRN-PCAP-0000000526,42.8,Summer,2022-Summer
6168094.69868414,1900286.70400915,130,255,255,2021/09/20 15:49:47+00,2021,Glenview Park,150,LOC-0077,-121.85144702,37.20591133,10,1,4.34,4,NEIG,"picnic_areas,playgrounds,planting,turf,benches,developed_land,trees,undeveloped_land,waste_receptacles,water_management,drinking_fountains",,,1,,1,1,,1,,,0.875,0.8333,,,,1,1,1,1,1,0.97348182,2021/09/20 16:00:09+00,2021/10/01 00:58:58+00,PRN-PCAP-0000000255,97.2,Summer,2021-Summer
6153227.64639731,1942284.8552489,131,1453,1453,2025/09/12 15:05:51+00,2025,Del Monte Park,807,LOC-1039,-121.90465385,37.32064459,6,3,5.49,5.49,NEIG,"picnic_areas,dog_areas,playgrounds,restrooms,drinking_fountains,benches,trees,waste_receptacles,water_management,fields,hardscapes,turf,planting,parking_lots,exercise_stations",,1,1,,0.8571,,0.8889,0.75,0.75,1,0.875,0.3333,1,0.75,,,0.8333,,0.6667,1,0.836,2025/09/12 15:36:44+00,2025/09/12 15:36:44+00,PRN-PCAP-0000001453,63.5,Special,2025-Special
6183249.10767972,1916476.46395239,132,218,218,2021/09/16 15:51:14+00,2021,Ramac Park,627,LOC-0652,-121.80018944,37.25096134,2,1,11.21,10.64,NEIG,"courts,fields,picnic_areas,playgrounds,parking_lots,restrooms,hardscapes,planting,turf,drinking_fountains,benches,developed_land,trees,undeveloped_land,waste_receptacles,water_management",1,0.9091,0.6667,,1,1,,1,,1,0.875,1,0.8,0.875,,0.3333,1,1,0.3333,1,0.862025,2021/09/16 20:06:17+00,2021/10/01 00:58:57+00,PRN-PCAP-0000000218,66.3,Summer,2021-Summer
6188099.36963272,1915111.37121014,133,319,319,2022/07/29 14:08:23+00,2022,Silver Leaf Park,669,LOC-0186,-121.78346257,37.24739638,2,2,5.52,5.51,NEIG,"courts,picnic_areas,exercise_stations,planting,turf,drinking_fountains,benches,developed_land,trees,undeveloped_land,waste_receptacles,water_management,playgrounds",1,,1,,0.9375,0.8,,1,0.75,,0.375,1,,,,0.6667,0.6667,1,0.6667,1,0.83558462,2022/07/29 14:52:53+00,2022/07/29 14:52:53+00,PRN-PCAP-0000000319,43.3,Summer,2022-Summer
6168220.26962721,1911369.26517731,134,1986,1986,2025/11/13 19:21:56+00,2025,Foothill Park,147,LOC-0072,-121.85156545,37.23635117,10,1,7.21,0.53,NEIG,"planting,developed_land,trees,undeveloped_land,waste_receptacles,water_management,picnic_areas",,,,,,1,,,,,,1,,,,1,1,1,0.6667,1,0.95238571,2025/11/13 19:31:25+00,2025/11/13 19:31:25+00,PRN-PCAP-0000001986,87,Summer,2025-Summer
6194084.91966946,1939220.46931732,135,356,356,2022/08/11 16:40:21+00,2022,Fowler Creek Park,517,LOC-0626,-121.76401948,37.31382906,8,4,12.22,11.68,NEIG,"courts,picnic_areas,playgrounds,parking_lots,restrooms,hardscapes,planting,turf,drinking_fountains,benches,trees,waste_receptacles,water_management",0.8167,,1,,0.875,,,1,,1,0.625,0.6667,1,1,,1,1,,1,1,0.9218,2022/08/11 17:14:44+00,2022/08/11 17:14:44+00,PRN-PCAP-0000000356,88.9,Summer,2022-Summer
6168673.17095239,1921078.60271397,136,631,631,2023/09/12 16:47:18+00,2023,Vista Park,458,LOC-0207,-121.85049115,37.26303284,2,2,9.95,9.97,NEIG,"courts,fields,picnic_areas,playgrounds,parking_lots,restrooms,planting,turf,benches,developed_land,trees,undeveloped_land,waste_receptacles,water_management,hardscapes",1,0.8182,1,,0.9375,0.6,,,,0.8334,0.875,1,0.6,0.875,,1,0.5,1,1,1,0.86927333,2023/09/12 17:39:57+00,2023/09/12 17:39:57+00,PRN-PCAP-0000000631,,Summer,2023-Summer
6162071.22221406,1943117.85751989,137,1502,1502,2025/09/16 14:54:45+00,2025,Bestor Art Park,503,LOC-0600,-121.87428686,37.32329275,3,2,0.79,0.8,NEIG,"courts,picnic_areas,playgrounds,hardscapes,planting,turf,drinking_fountains,benches,developed_land,trees,waste_receptacles,water_management",1,,1,,1,1,,0.25,,1,0.875,1,,,,1,1,,0.6667,1,0.89930833,2025/09/16 15:04:42+00,2025/09/16 15:04:42+00,PRN-PCAP-0000001502,12.9,Summer,2025-Summer
6155210.59485923,1940045.49686673,138,332,332,2022/08/03 17:56:17+00,2022,Hummingbird Park,492,LOC-0249,-121.8977204,37.31457647,6,3,0.45,0.43,NEIG,"playgrounds,hardscapes,planting,turf,benches,trees,waste_receptacles,water_management,picnic_areas",,,1,,1,,,,,1,1,1,,,,1,1,,1,1,1,2022/08/03 18:03:48+00,2022/08/03 18:03:48+00,PRN-PCAP-0000000332,67.2,Summer,2022-Summer
6160799.30809122,1929175.47726823,139,827,827,2023/10/24 17:14:46+00,2023,Canoas Park,44,LOC-0038,-121.87795458,37.28495313,9,2,3.82,3.85,NEIG,"courts,picnic_areas,playgrounds,planting,turf,drinking_fountains,benches,developed_land,trees,undeveloped_land,waste_receptacles,water_management,hardscapes",1,,0.6667,,0.6667,1,,1,,1,0.625,1,,,,1,0.8333,1,0.6667,1,0.88141538,2023/10/24 17:35:51+00,2023/10/24 17:35:51+00,PRN-PCAP-0000000827,,Summer,2023-Summer
6159893.3889713,1942266.39596823,140,237,237,2021/09/17 18:09:55+00,2021,Washington United Youth Center,66,LOC-0023,-121.88059124,37.32193842,3,5,1.26,1.24,CC,"benches,trees,waste_receptacles,water_management,hardscapes",,,0.6667,,,,,,,0.91665,,,,,,,1,,1,1,0.91667,2021/09/17 18:18:07+00,2021/10/01 00:58:57+00,PRN-PCAP-0000000237,7.8,Summer,2021-Summer
6172896.01814972,1912737.3198559,141,1873,1873,2025/11/05 18:38:38+00,2025,Comanche Park,480,LOC-0051,-121.83557275,37.24029247,10,1,2.92,2.95,NEIG,"picnic_areas,playgrounds,hardscapes,turf,drinking_fountains,benches,developed_land,trees,waste_receptacles,water_management",,,1,,0.875,0.8,,1,,0.7917,0.75,,,,,0.6667,1,,1,1,0.88834,2025/11/05 19:06:03+00,2025/11/05 19:06:03+00,PRN-PCAP-0000001873,71.4,Summer,2025-Summer
6159505.55346088,1918050.72130255,142,1698,1698,2025/10/01 18:07:45+00,2025,Russo Park,20,LOC-0624,-121.88183649,37.25435017,9,3,0.36,0.37,NEIG,"courts,hardscapes,planting,turf,benches,trees,waste_receptacles,water_management,drinking_fountains",1,,1,,,,,0.25,,1,0.75,1,,,,,0.8333,,0.6667,0,0.7222,2025/10/01 18:14:02+00,2025/10/01 18:14:02+00,PRN-PCAP-0000001698,56.2,Special,2025-Special
6172344.50973831,1923225.01508781,143,75,75,2021/09/01 15:31:10+00,2021,Parkview III Park,455,LOC-0151,-121.83798218,37.26907213,2,2,5.33,5.37,NEIG,"picnic_areas,playgrounds,planting,turf,benches,developed_land,trees,waste_receptacles,water_management",,,1,,1,1,,,,,0.875,1,,,,1,0.6667,,1,1,0.94907778,2021/09/01 15:48:13+00,2021/10/01 00:58:54+00,PRN-PCAP-0000000075,43.7,Summer,2021-Summer
6176245.29852463,1918494.10099323,144,966,966,2024/09/06 16:33:14+00,2024,Coy Park,115,LOC-0054,-121.82434821,37.25623248,2,2,3.98,4,NEIG,"benches,developed_land,trees,undeveloped_land,waste_receptacles,water_management,playgrounds,drinking_fountains,exercise_stations,hardscapes,turf,picnic_areas",,,1,,0.875,1,,1,0.875,0.75,0.875,,,,,0.6667,0.8333,1,1,1,0.90625,2024/09/06 17:02:47+00,2024/09/06 17:02:47+00,PRN-PCAP-0000000966,27.1,Summer,2024-Summer
6158846.26016006,1939954.37434556,145,1464,1464,2025/09/12 17:24:08+00,2025,Tamien Park,77,LOC-1076,-121.88521539,37.3144747,3,3,1.55,1.55,NEIG,"courts,fields,picnic_areas,playgrounds,exercise_stations,parking_lots,benches,trees,waste_receptacles,water_management,hardscapes,turf,planting,restrooms",1,1,1,,1,,,,1,1,1,1,1,0.875,,,1,,1,1,0.9904,2025/09/12 17:39:20+00,2025/09/12 17:39:20+00,PRN-PCAP-0000001464,5.5,Special,2025-Special
6157675.56138597,1946411.32763898,146,2012,2012,2025/11/14 20:34:02+00,2025,Plaza de Cesar Chavez,499,LOC-0163,-121.88957022,37.33215893,3,5,3.37,3.4,NEIG,"hardscapes,planting,turf,drinking_fountains,benches,trees,waste_receptacles,water_management",,,0.6667,,,,,0.25,,0.9167,0.875,0.5,,,,,1,,0,0,0.5261,2025/11/14 21:00:27+00,2025/11/14 21:00:27+00,PRN-PCAP-0000002012,55.7,Special,2025-Special
6123049.5709268,1935565.51140414,147,396,396,2022/08/18 18:29:01+00,2022,Rainbow Park,467,LOC-0166,-122.00804798,37.30090256,1,3,8.84,8.59,NEIG,"picnic_areas,playgrounds,restrooms,hardscapes,turf,drinking_fountains,benches,developed_land,trees,undeveloped_land,waste_receptacles,water_management",,,0.6667,,0.5556,1,,0.25,,0.75,0.625,,,0.875,,1,0.3333,1,0.6667,1,0.72685833,2022/08/18 19:28:24+00,2022/08/18 19:28:24+00,PRN-PCAP-0000000396,95.8,Summer,2022-Summer
6181912.79047047,1917004.86348614,148,1183,1183,2024/09/24 16:03:56+00,2024,Southside Community Center,120,LOC-0189,-121.80480551,37.25236136,2,1,4.2,4.27,CC,"picnic_areas,playgrounds,parking_lots,benches,developed_land,trees,waste_receptacles,water_management,planting,turf,hardscapes,courts",1,,1,,1,1,,,,1,1,1,1,,,0.6667,1,,1,1,0.972225,2024/09/24 16:32:52+00,2024/09/24 16:32:52+00,PRN-PCAP-0000001183,36.8,Summer,2024-Summer
6128402.35680914,1941332.45328231,149,1528,1528,2025/09/17 18:30:40+00,2025,John Mise Park,558,LOC-0131,-121.98996303,37.31697475,1,3,11.6,11.45,NEIG,"courts,fields,picnic_areas,playgrounds,parking_lots,restrooms,drinking_fountains,benches,developed_land,trees,waste_receptacles,water_management,hardscapes,turf",0.9,1,1,,1,1,,0.75,,1,1,,0.8,1,,1,0.6667,,1,1,0.93690714,2025/09/17 18:48:45+00,2025/09/17 18:48:45+00,PRN-PCAP-0000001528,62.6,Summer,2025-Summer
6174227.99875347,1953217.7920444,150,144,144,2021/09/09 15:13:11+00,2021,Capitol Park,646,LOC-0039,-121.83297818,37.35151195,5,8,11.91,11.91,NEIG,"courts,fields,picnic_areas,playgrounds,exercise_stations,restrooms,hardscapes,planting,turf,benches,trees,waste_receptacles,water_management",1,0.7273,1,,0.875,,,,0.875,1,0.5,0.6667,,0,,0.3333,0.5,,1,1,0.72902308,2021/09/09 16:03:00+00,2021/10/01 00:58:55+00,PRN-PCAP-0000000144,9.2,Summer,2021-Summer
6152241.79633489,1950477.29063565,151,630,630,2023/09/12 18:23:34+00,2023,Guadalupe Gardens - Courtyard Garden,282,LOC-0708,-121.90846771,37.34310165,6,5,4.69,4.71,REG,"drinking_fountains,developed_land,trees,undeveloped_land,waste_receptacles,water_management,benches,hardscapes,turf,planting,picnic_areas",,,1,,,0.2,,1,,0.3333,0.125,0.3333,,,,1,0.8333,1,1,0,0.62044545,2023/09/12 18:14:15+00,2023/09/12 18:24:14+00,PRN-PCAP-0000000630,,Summer,2023-Summer
6157204.78444038,1924259.56518406,152,1190,1190,2024/09/25 16:20:14+00,2024,Paul Moore Park,555,LOC-0154,-121.89005762,37.27130717,9,3,8.72,8.74,NEIG,"courts,fields,picnic_areas,playgrounds,restrooms,hardscapes,planting,turf,drinking_fountains,benches,developed_land,trees,undeveloped_land,waste_receptacles,water_management",0.7778,0.7273,0.6667,,0.8125,1,,0.5,,1,0.875,1,,0.5,,0,0.5,1,0.6667,1,0.73506667,2024/09/25 17:34:08+00,2024/09/25 17:34:08+00,PRN-PCAP-0000001190,78.8,Summer,2024-Summer
6155792.44737005,1945066.63610265,153,1317,1317,2025/09/03 16:27:56+00,2025,Discovery Dog Park,494,LOC-0710,-121.89597738,37.32838921,6,5,0.43,0.45,DOG,"dog_areas,hardscapes,benches,trees,waste_receptacles,water_management,drinking_fountains,developed_land",,,0.3333,,,0.6,0.6667,0.5,,0.6667,,,,,,,0.5,,1,1,0.6583,2025/09/03 17:00:39+00,2025/09/03 17:00:39+00,PRN-PCAP-0000001317,55.7,Special,2025-Special
6192619.58139281,1930703.86331905,154,1105,1105,2024/09/13 17:20:55+00,2024,Canyon Creek Park,724,LOC-0610,-121.76866075,37.2903861,8,4,1.34,1.16,NEIG,"picnic_areas,playgrounds,turf,drinking_fountains,benches,developed_land,trees,waste_receptacles,water_management,hardscapes",,,0.6667,,0.875,0.6,,0.75,,1,0.75,,,,,1,0.8333,,0,1,0.7475,2024/09/13 17:46:23+00,2024/09/13 17:46:23+00,PRN-PCAP-0000001105,93.5,Summer,2024-Summer
6156107.44116263,1946074.99793106,155,660,660,2023/09/21 18:03:20+00,2023,John P. McEnery Park,472,LOC-0122,-121.89494584,37.33117124,3,5,1.63,1.49,NEIG,"picnic_areas,playgrounds,restrooms,hardscapes,planting,turf,benches,trees,waste_receptacles,water_management",,,0.6667,,0.625,,,,,1,1,1,,0.5,,0.6667,0.6667,,0.3333,0,0.64584,2023/09/21 18:44:42+00,2023/09/21 18:44:42+00,PRN-PCAP-0000000660,,Summer,2023-Summer
6145449.62783264,1937536.9986029,156,136,136,2021/09/08 18:25:08+00,2021,Bascom Community Center and Library,3,LOC-0680,-121.93114901,37.30728257,6,3,2.17,2.21,CC,"parking_lots,benches,developed_land,trees,undeveloped_land,waste_receptacles,water_management",,,1,,,1,,,,,,,1,,,,1,1,1,1,1,2021/09/08 18:26:30+00,2021/10/01 00:58:55+00,PRN-PCAP-0000000136,14.2,Summer,2021-Summer
6186305.11272256,1932622.15967931,157,802,802,2023/10/20 19:05:45+00,2023,Silver Creek Linear Park - Picnic Meadow,866,LOC-0182,-121.79045576,37.29541705,8,4,1.86,1.86,NEIG,"exercise_stations,restrooms,turf,drinking_fountains,benches,developed_land,trees,undeveloped_land,waste_receptacles,water_management,courts,playgrounds,parking_lots,picnic_areas",1,,1,,0.875,0.8,,0.25,1,,1,,1,0.5,,0.6667,1,1,1,1,0.86369286,2023/10/20 19:39:51+00,2023/10/20 19:39:51+00,PRN-PCAP-0000000802,,Summer,2023-Summer
6181756.92660896,1922728.01050439,158,1109,1109,2024/09/13 18:12:19+00,2024,Great Oaks Park,661,LOC-0083,-121.80561529,37.26807236,2,2,11.5,11.54,NEIG,"courts,fields,picnic_areas,playgrounds,skate_parks,restrooms,hardscapes,turf,benches,developed_land,trees,undeveloped_land,waste_receptacles,water_management",1,1,1,,0.625,1,,,,1,1,,,1,1,1,1,1,1,1,0.97321429,2024/09/13 18:29:27+00,2024/09/13 18:29:27+00,PRN-PCAP-0000001109,23.5,Summer,2024-Summer
6157258.30270605,1951874.24551889,159,482,482,2022/08/29 20:48:58+00,2022,Jacinto Siquig Northside Community Center,109,LOC-0139,-121.89128452,37.347144,3,5,0.67,0.63,CC,"benches,developed_land,trees,undeveloped_land,waste_receptacles,water_management",,,0.6667,,,1,,,,,,,,,,,1,1,1,1,0.94445,2022/08/29 20:49:17+00,2022/08/29 20:49:17+00,PRN-PCAP-0000000482,32.7,Summer,2022-Summer
6164940.22763088,1946582.51200789,160,5,5,2021/08/13 17:31:01+00,2021,Forestdale Tot Lot,756,LOC-0073,-121.86459502,37.33292261,3,2,0.54,0.55,NEIG,"playgrounds,hardscapes,planting,turf,drinking_fountains,benches,trees,waste_receptacles,water_management",,,0.6667,,0.7778,,,0.25,,1,0.875,1,,,,,0.8333,,0.6667,1,0.7855,2021/08/13 18:03:37+00,2021/10/01 00:58:52+00,PRN-PCAP-0000000005,5,Summer,2021-Summer
6171489.4268028,1938320.5226264,161,50,50,2021/09/29 15:25:57+00,2021,Tully Community Ballfields,708,LOC-0593,-121.8416641,37.31049372,7,4,10.65,10.18,SPRT,"fields,picnic_areas,parking_lots,hardscapes,turf,drinking_fountains,developed_land,trees,waste_receptacles,water_management",,0.6819,,,,0.2,,0.5,,1,0.5,,0.6,,,1,1,,1,1,0.74819,2021/08/25 19:46:54+00,2021/10/01 15:38:28+00,PRN-PCAP-0000000050,27.6,Summer,2021-Summer
6135619.59959248,1937790.19822773,162,1547,1547,2025/09/17 17:22:54+00,2025,Starbird Park,556,LOC-0192,-121.96495711,37.30756017,1,3,9.41,8.05,NEIG,"courts,fields,picnic_areas,playgrounds,parking_lots,hardscapes,planting,turf,drinking_fountains,benches,developed_land,trees,waste_receptacles,water_management,restrooms",1,1,1,,0.625,0.6,,0.5,,0.9167,0.875,0.8333,0.8,0.875,,1,0.6667,,1,1,0.84611333,2025/09/17 17:54:09+00,2025/09/17 17:54:09+00,PRN-PCAP-0000001547,22.5,Summer,2025-Summer
6180806.96262963,1933917.9563003,163,1355,1355,2025/09/05 17:31:23+00,2025,Dove Hill Park,641,LOC-0060,-121.80941754,37.29876584,8,2,2.93,2.95,NEIG,"picnic_areas,playgrounds,planting,turf,drinking_fountains,benches,trees,waste_receptacles,water_management,hardscapes",,,0,,0.7143,,,0.5,,0.75,0.375,0.6667,,,,,0.8333,,1,1,0.6488,2025/09/05 18:00:01+00,2025/09/05 18:00:01+00,PRN-PCAP-0000001355,32.2,Special,2025-Special
6143308.60849264,1973687.15399273,164,1807,1807,2025/10/14 17:48:06+00,2025,Moitozo Park,569,LOC-0583,-121.94042263,37.40646595,4,8,6.03,6.08,NEIG,"picnic_areas,exercise_stations,parking_lots,hardscapes,planting,turf,benches,trees,waste_receptacles,water_management,courts,drinking_fountains",1,,1,,,,,1,1,1,0.375,1,1,,,,0.6667,,1,0,0.822,2025/10/14 18:12:04+00,2025/10/14 18:12:04+00,PRN-PCAP-0000001807,74.6,Special,2025-Special
6163980.96806647,1951479.65280415,165,156,156,2021/09/10 14:21:37+00,2021,East San Jose Carnegie Branch Library,196,LOC-0061,-121.86814025,37.34633257,3,5,0.66,0.65,LIBR,"benches,trees,waste_receptacles,water_management,hardscapes,planting,parking_lots",,,1,,,,,,,1,,1,1,,,,1,,0.6667,1,0.95238571,2021/09/10 14:28:30+00,2021/10/01 00:58:56+00,PRN-PCAP-0000000156,20.7,Summer,2021-Summer
6155976.65008564,1963337.88860206,166,1054,1054,2024/09/11 15:37:44+00,2024,Orchard Park,681,LOC-1065,-121.89628146,37.37857261,3,8,1.02,1.01,NEIG,"picnic_areas,playgrounds,benches,trees,waste_receptacles,water_management,hardscapes",,,1,,0.9375,,,,,1,,,,,,0.6667,1,,1,1,0.94345714,2024/09/11 15:45:15+00,2024/09/11 15:45:15+00,PRN-PCAP-0000001054,17.5,Summer,2024-Summer
6189979.83700038,1947525.04883672,167,1921,1921,2025/11/06 20:49:29+00,2025,Groesbeck Hill Park,454,LOC-0082,-121.77852402,37.33648211,8,4,27.22,11.46,NEIG,"courts,picnic_areas,playgrounds,exercise_stations,hardscapes,planting,turf,drinking_fountains,benches,developed_land,trees,undeveloped_land,waste_receptacles,water_management",0.9167,,1,,0.75,0.6,,1,0.375,1,0.625,0.8333,,,,0.3333,0.8333,1,0.3333,1,0.75713571,2025/11/06 21:37:34+00,2025/11/06 21:37:34+00,PRN-PCAP-0000001921,82.4,Summer,2025-Summer
6131421.17885546,1935967.9210324,168,1336,1336,2025/09/04 17:01:09+00,2025,West Valley Branch Library,6,LOC-0220,-121.97929177,37.30237458,1,3,2.45,2.45,LIBR,"trees,waste_receptacles,water_management,planting,hardscapes",,,,,,,,,,0.6944,,0.6667,,,,,1,,0.3333,1,0.73888,2025/09/04 17:20:11+00,2025/09/04 17:20:11+00,PRN-PCAP-0000001336,22.5,Summer,2025-Summer
6191028.05143939,1939085.88690931,169,484,484,2022/08/29 20:49:24+00,2022,Village Square Branch Library,217,LOC-0439,-121.77452356,37.31334561,8,4,0.7,0.6,LIBR,"benches,developed_land,trees,undeveloped_land,waste_receptacles,water_management",,,1,,,1,,,,,,,,,,,1,1,1,1,1,2022/08/29 20:54:34+00,2022/08/29 20:54:34+00,PRN-PCAP-0000000484,91.2,Summer,2022-Summer
6171989.50290239,1961474.43990114,170,1670,1670,2025/09/30 15:07:19+00,2025,Sheppard Middle School Track & Field,405,LOC-0767,-121.84108561,37.37409842,5,8,12.58,12.66,JU,"fields,parking_lots,benches",,0.7273,1,,,,,,,,,,1,,,,,,,,0.9091,2025/09/30 15:06:04+00,2025/09/30 15:07:30+00,PRN-PCAP-0000001670,35.9,Special,2025-Special
6166885.78509147,1943059.47410648,171,107,107,2021/09/03 16:20:29+00,2021,Kelley Park,715,LOC-0103,-121.85772822,37.32332543,7,2,121.08,47.44,REG,"picnic_areas,parking_lots,restrooms,drinking_fountains,benches,developed_land,trees,undeveloped_land,waste_receptacles,water_management,hardscapes,turf,planting",,,1,,,1,,0.75,,1,0.375,0.8333,1,0.875,,1,0.8333,1,1,1,0.89743077,2021/09/03 17:02:54+00,2021/10/01 00:58:54+00,PRN-PCAP-0000000107,8.7,Summer,2021-Summer
6152577.91475713,1950768.0725344,172,1481,1481,2025/09/15 16:20:56+00,2025,Guadalupe Gardens - Heritage Rose Garden,290,LOC-0708,-121.90732666,37.34391407,6,5,4.21,4.23,REG,"drinking_fountains,benches,developed_land,water_management,hardscapes,planting,picnic_areas,waste_receptacles,parking_lots",,,1,,,0.2,,0.5,,0.3333,,0.1667,0.8,,,0.6667,,,0.6667,0,0.48148889,2025/09/15 16:07:55+00,2025/09/15 16:21:16+00,PRN-PCAP-0000001481,59.4,Summer,2025-Summer
6167071.7387878,1950287.80873114,173,818,818,2023/10/24 15:36:32+00,2023,Bonita Park,723,LOC-0627,-121.85744934,37.34318316,3,2,0.93,0.92,NEIG,"courts,picnic_areas,playgrounds,hardscapes,benches,developed_land,trees,undeveloped_land,waste_receptacles,water_management,turf,drinking_fountains",1,,1,,0.7778,0.8,,0.75,,1,0.75,,,,,1,1,1,1,1,0.92315,2023/10/24 15:51:21+00,2023/10/24 15:51:21+00,PRN-PCAP-0000000818,,Summer,2023-Summer
6168233.71087331,1924219.24931981,174,721,721,2023/09/29 16:39:57+00,2023,Meadows Park,18,LOC-0125,-121.85215702,37.27164023,2,2,4.59,4.61,NEIG,"picnic_areas,playgrounds,planting,turf,drinking_fountains,benches,developed_land,trees,waste_receptacles,water_management",,,1,,0.75,0.6,,0.5,,,0.5,0.8333,,,,1,0.8333,,1,1,0.80166,2023/10/02 13:29:39+00,2023/10/02 13:29:39+00,PRN-PCAP-0000000721,,Summer,2023-Summer
6173064.90855998,1912324.42501239,175,306,306,2022/07/15 16:28:29+00,2022,Comanche Park,480,LOC-0051,-121.83557275,37.24029247,10,1,2.92,2.95,NEIG,"benches,developed_land,trees,undeveloped_land,waste_receptacles,water_management,playgrounds,drinking_fountains,hardscapes,turf,picnic_areas",,,1,,0.875,1,,1,,0.9167,0.5,,,,,0.3333,1,1,1,1,0.875,2022/07/15 17:05:46+00,2022/07/15 17:05:46+00,PRN-PCAP-0000000306,71.4,Summer,2022-Summer
6163550.23106706,1971686.26330948,176,273,273,2022/03/03 21:37:51+00,2022,Cataldi Park,774,LOC-0043,-121.87063991,37.4018061,4,8,33.94,33.97,NEIG,"courts,fields,picnic_areas,playgrounds,exercise_stations,parking_lots,restrooms,hardscapes,planting,turf,drinking_fountains,benches,trees,waste_receptacles,water_management",0.9333,0.8182,1,,0.9445,,,0.75,0.875,1,0.875,0.8333,1,0.75,,1,1,,1,0,0.85195333,2022/03/09 18:21:14+00,2022/03/09 18:21:14+00,PRN-PCAP-0000000273,61.7,Special,2022-Special
6131325.60293114,1933892.34217831,177,89,89,2021/09/01 19:46:37+00,2021,Hathaway Park,559,LOC-0092,-121.97950752,37.29667061,1,3,6.68,6.61,NEIG,"courts,fields,picnic_areas,playgrounds,exercise_stations,restrooms,turf,drinking_fountains,developed_land,trees,undeveloped_land,waste_receptacles,water_management",1,0.8182,,,0.75,1,,0.5,1,,0.875,,,0.75,,0.6667,1,1,0.6667,1,0.8482,2021/09/01 20:05:16+00,2021/10/01 00:58:54+00,PRN-PCAP-0000000089,69.1,Summer,2021-Summer
6159670.10267247,1964021.85573806,178,1673,1673,2025/09/30 16:27:52+00,2025,Townsend Park,722,LOC-0202,-121.88360631,37.38060155,3,8,7.73,7.65,NEIG,"courts,picnic_areas,playgrounds,exercise_stations,hardscapes,turf,benches,developed_land,trees,waste_receptacles,water_management,drinking_fountains",0.8333,,0.6667,,0.64285,0.6,,0.5,0.625,0.75,0.5,,,,,,0.5,,0.6667,1,0.6622,2025/09/30 16:26:01+00,2025/09/30 16:28:39+00,PRN-PCAP-0000001673,67.7,Special,2025-Special
6181003.48913947,1954710.13321981,179,485,485,2022/08/29 14:54:34+00,2022,Mt. Pleasant Park,479,LOC-0133,-121.80974233,37.35587294,5,4,5.61,5.61,NEIG,"picnic_areas,playgrounds,turf,drinking_fountains,benches,developed_land,trees,waste_receptacles,water_management,hardscapes",,,1,,0.875,1,,1,,1,0.875,,,,,0.6667,0.8333,,1,1,0.925,2022/08/29 16:11:15+00,2022/08/29 16:11:15+00,PRN-PCAP-0000000485,19.3,Summer,2022-Summer
6154827.40435264,1946829.27496581,180,1432,1432,2025/09/11 17:07:37+00,2025,Guadalupe River Park - Arena Green,775,LOC-0088,-121.8993867,37.33319013,6,5,8.65,8.65,REG,"picnic_areas,playgrounds,hardscapes,turf,drinking_fountains,benches,developed_land,trees,undeveloped_land,waste_receptacles,water_management,parking_lots,courts",1,,1,,1,1,,0.5,,0.8333,0.875,,1,,,1,1,1,1,1,0.9391,2025/09/11 16:47:41+00,2025/09/11 17:07:53+00,PRN-PCAP-0000001432,59.4,Summer,2025-Summer
6177297.25508213,1921538.39903848,181,1822,1822,2025/10/16 19:33:01+00,2025,Edenvale Garden Park,483,LOC-0067,-121.82088173,37.26463357,2,2,19.08,18.76,REG,"courts,picnic_areas,playgrounds,parking_lots,restrooms,hardscapes,planting,turf,drinking_fountains,benches,developed_land,trees,waste_receptacles,water_management",1,,1,,1,0.2,,0.5,,1,0.875,0.1667,1,1,,1,0.5,,0.6667,1,0.77917143,2025/10/16 19:55:09+00,2025/10/16 19:55:09+00,PRN-PCAP-0000001822,73.2,Summer,2025-Summer
6180140.60733506,1942221.4715174,182,1682,1682,2025/09/30 18:28:46+00,2025,Arcadia Ballpark,193,LOC-1088,-121.81210841,37.32154336,8,7,14.5,14.5,REG,"fields,playgrounds,parking_lots,restrooms,benches,developed_land,trees,undeveloped_land,waste_receptacles,water_management,drinking_fountains,hardscapes,planting,picnic_areas,turf",,0.9091,1,,0.875,1,,0.75,,1,0.75,1,1,1,,1,1,1,0.3333,1,0.90782667,2025/09/30 18:39:25+00,2025/09/30 18:39:25+00,PRN-PCAP-0000001682,23.9,Summer,2025-Summer
6183749.55877855,1969907.52342865,183,505,505,2022/08/31 15:42:29+00,2022,Alum Rock Park,159,LOC-0010,-121.80102216,37.3977132,4,8,718.9,30,REG,"developed_land,benches,trees,undeveloped_land,waste_receptacles,water_management,courts,playgrounds,hardscapes,turf,planting,parking_lots,restrooms,picnic_areas",0.95,,1,,1,0.8,,,,1,0.875,1,1,0.875,,0.6667,1,1,1,1,0.94047857,2022/09/01 04:05:51+00,2022/09/01 04:05:51+00,PRN-PCAP-0000000505,38.2,Summer,2022-Summer
6126399.40182555,1935037.08201481,184,419,419,2022/08/22 17:22:43+00,2022,Saratoga Creek Park,371,LOC-0176,-121.99650365,37.2995991,1,3,10.83,10.06,NEIG,"picnic_areas,playgrounds,parking_lots,restrooms,hardscapes,planting,turf,benches,developed_land,trees,waste_receptacles,water_management,drinking_fountains,exercise_stations,dog_areas",,,1,,0.9375,0.8,0.8,1,0.75,0.8334,0.625,1,1,1,,1,0.3333,,0.3333,0,0.76083333,2022/08/22 17:36:52+00,2022/08/22 17:36:52+00,PRN-PCAP-0000000419,82,Summer,2022-Summer
6143064.14671122,1917121.20249231,185,1196,1196,2024/09/26 15:03:48+00,2024,Carolyn Norris Park,464,LOC-0663,-121.93827129,37.25111721,9,1,1.26,1.31,NEIG,"picnic_areas,playgrounds,hardscapes,planting,turf,benches,trees,waste_receptacles,water_management,drinking_fountains",,,1,,0.8264,,,1,,0.9167,0.875,0.6667,,,,1,0.6667,,1,1,0.89515,2024/09/26 15:21:26+00,2024/09/26 15:21:26+00,PRN-PCAP-0000001196,84.7,Summer,2024-Summer
6169149.7011673,1951387.27634847,186,642,642,2023/09/15 19:31:13+00,2023,Zolezzi Park,647,LOC-0221,-121.85035656,37.34628506,5,8,1.81,1.8,NEIG,"courts,picnic_areas,playgrounds,exercise_stations,hardscapes,planting,turf,drinking_fountains,benches,developed_land,trees,undeveloped_land,waste_receptacles,water_management",1,,0.6667,,0.875,1,,0.25,0.875,1,1,0.6667,,,,0.6667,0.8333,1,1,1,0.84524286,2023/09/15 20:00:10+00,2023/09/15 20:00:10+00,PRN-PCAP-0000000642,,Summer,2023-Summer
6135619.59992056,1937790.19822773,187,83,83,2021/09/01 18:01:20+00,2021,Starbird Park,556,LOC-0192,-121.96495711,37.30756017,1,3,9.41,8.05,NEIG,"courts,fields,picnic_areas,playgrounds,parking_lots,planting,turf,drinking_fountains,developed_land,trees,undeveloped_land,waste_receptacles,water_management,restrooms",0.8,1,,,0.375,1,,0.75,,,1,1,1,1,,0.3333,0.6667,1,0.6667,1,0.82797857,2021/09/01 18:44:19+00,2021/10/01 00:58:54+00,PRN-PCAP-0000000083,22.5,Summer,2021-Summer
6164226.85701039,1918969.91073714,188,771,771,2023/10/12 17:28:17+00,2023,William H. Cilker Park,456,LOC-0595,-121.86566252,37.25706476,9,1,1.93,1.99,NEIG,"drinking_fountains,benches,developed_land,trees,undeveloped_land,waste_receptacles,water_management,turf",,,1,,,1,,1,,,1,,,,,,1,1,1,1,1,2023/10/13 21:15:09+00,2023/10/13 21:15:09+00,PRN-PCAP-0000000771,,Summer,2023-Summer
6168233.71087331,1924219.24931981,189,1443,1443,2025/09/11 17:39:10+00,2025,Meadows Park,18,LOC-0125,-121.85215702,37.27164023,2,2,4.59,4.61,NEIG,"picnic_areas,playgrounds,turf,drinking_fountains,benches,trees,waste_receptacles,water_management,hardscapes,developed_land",,,1,,0.92855,0.8,,0.25,,1,0.625,,,,,,0.8333,,1,1,0.8263,2025/09/11 17:52:51+00,2025/09/11 17:52:51+00,PRN-PCAP-0000001443,60.8,Special,2025-Special
6160662.16433664,1910088.1850623,190,170,170,2021/09/10 19:23:47+00,2021,Jeffery Fontana Park,584,LOC-0079,-121.8774603,37.23253043,10,1,18.08,18.05,NEIG,"playgrounds,exercise_stations,hardscapes,planting,turf,drinking_fountains,benches,developed_land,trees,waste_receptacles,water_management,dog_areas",,,1,,1,0.6,0.9,1,0.625,0.6667,0.5,0.8333,,,,,0.5,,1,1,0.80208333,2021/09/10 20:31:14+00,2021/10/01 00:58:56+00,PRN-PCAP-0000000170,92.1,Summer,2021-Summer
6171997.03175873,1968982.37829731,191,1575,1575,2025/09/19 16:34:56+00,2025,Noble Park,389,LOC-0138,-121.84143005,37.39471689,4,8,6.59,6.61,NEIG,"picnic_areas,hardscapes,turf,benches,trees,waste_receptacles,water_management,drinking_fountains,developed_land",,,1,,,1,,0,,0.5,0.375,,,,,,0.1667,,1,0,0.5052,2025/09/19 17:13:34+00,2025/09/19 17:13:34+00,PRN-PCAP-0000001575,38.2,Special,2025-Special
6157536.16665164,1931215.4754848,192,81,81,2021/09/01 16:17:56+00,2021,Lincoln Glen Park and Willow Glen Community and Senior Center,45,LOC-0112,-121.88927376,37.29042283,6,3,6.46,6.5,NEIG,"waste_receptacles,trees,benches,water_management,turf,fields,exercise_stations,hardscapes,planting,parking_lots,restrooms,picnic_areas,drinking_fountains,playgrounds",,1,1,,1,,,0.5,1,1,1,1,1,1,,1,1,,1,1,0.96428571,2021/09/01 17:12:34+00,2021/10/01 00:58:54+00,PRN-PCAP-0000000081,96.3,Summer,2021-Summer
6118591.31770422,1936155.76153597,193,1322,1322,2025/09/03 17:48:34+00,2025,Calabazas Branch Library,376,LOC-0032,-122.0234065,37.30232514,1,3,1.1,1.1,LIBR,"trees,waste_receptacles,water_management,planting",,,,,,,,,,,,1,,,,,1,,1,1,1,2025/09/03 17:51:30+00,2025/09/03 17:51:30+00,PRN-PCAP-0000001322,88.4,Summer,2025-Summer
6156569.41956939,1953150.57728381,194,1017,1017,2024/09/09 19:12:24+00,2024,Heinlenville Park,71,LOC-1057,-121.8937195,37.35062086,3,5,0.75,0.75,NEIG,"picnic_areas,playgrounds,drinking_fountains,benches,trees,undeveloped_land,waste_receptacles,water_management",,,1,,1,,,0.75,,,,,,,,1,1,1,1,1,0.96875,2024/09/09 19:29:03+00,2024/09/09 19:29:03+00,PRN-PCAP-0000001017,32.7,Summer,2024-Summer
6172079.46728939,1968640.1135619,195,1562,1562,2025/09/19 16:22:52+00,2025,Berryessa Branch Library,395,LOC-0020,-121.84112942,37.39378022,4,8,2.98,2.98,LIBR,"trees,waste_receptacles,water_management,parking_lots,planting",,,,,,,,,,,,0.5,1,,,,0.1667,,0.6667,1,0.6667,2025/09/19 16:33:53+00,2025/09/19 16:33:53+00,PRN-PCAP-0000001562,38.2,Special,2025-Special
6132931.16041556,1981142.14301972,196,1715,1715,2025/10/02 15:58:27+00,2025,Alviso Community Policing Center,266,LOC-0757,-121.97655134,37.42649412,4,8,0.3,0.31,CIV,"developed_land,trees,waste_receptacles,water_management,parking_lots",,,,,,0.8,,,,,,,1,,,,1,,1,1,0.96,2025/10/02 16:00:51+00,2025/10/02 16:00:51+00,PRN-PCAP-0000001715,25.8,Special,2025-Special
6172344.50973831,1923225.01508781,197,1071,1071,2024/09/12 18:10:54+00,2024,Parkview III Park,455,LOC-0151,-121.83798218,37.26907213,2,2,5.33,5.37,NEIG,"picnic_areas,playgrounds,planting,turf,benches,trees,undeveloped_land,waste_receptacles,water_management",,,1,,0.7778,,,,,,1,1,,,,1,0.8333,1,0.6667,1,0.91975556,2024/09/12 18:55:26+00,2024/09/12 18:55:26+00,PRN-PCAP-0000001071,43.7,Summer,2024-Summer
6169845.37989405,1924569.28995831,198,1074,1074,2024/09/12 19:35:17+00,2024,Parkview I Park,22,LOC-0149,-121.84663614,37.27266533,2,2,2.57,2.54,NEIG,"playgrounds,planting,turf,drinking_fountains,benches,trees,undeveloped_land,waste_receptacles,water_management",,,1,,0.875,,,1,,,1,0.8333,,,,,0.6667,1,1,1,0.93055556,2024/09/12 19:49:41+00,2024/09/12 19:49:41+00,PRN-PCAP-0000001074,44.2,Summer,2024-Summer
6154845.57032681,1946835.7001498,199,208,208,2021/09/16 17:48:16+00,2021,Guadalupe River Park - Arena Green,775,LOC-0088,-121.89932456,37.33320852,6,5,8.65,4.46,REG,"picnic_areas,playgrounds,restrooms,hardscapes,planting,turf,drinking_fountains,benches,developed_land,trees,undeveloped_land,waste_receptacles,water_management",,,1,,0.9445,1,,1,,1,1,1,,0.75,,1,1,1,1,1,0.9765,2021/09/16 19:08:50+00,2021/10/01 00:58:57+00,PRN-PCAP-0000000208,59.4,Summer,2021-Summer
6164033.5125808,1922931.7541914,200,1848,1848,2025/11/04 20:31:16+00,2025,Pearl Ave Branch Library,23,LOC-0155,-121.86652555,37.26793697,9,1,1.17,1.21,LIBR,"parking_lots,trees,waste_receptacles,water_management,hardscapes,planting",,,,,,,,,,1,,1,1,,,,1,,0.6667,1,0.9445,2025/11/04 20:36:07+00,2025/11/04 20:36:07+00,PRN-PCAP-0000001848,60.8,Special,2025-Special
6170125.24711648,1967634.79929955,201,1571,1571,2025/09/19 18:14:57+00,2025,Penitencia Creek Park and Berryessa Community Center,772,LOC-0156,-121.84780587,37.39094234,4,8,38.12,36.65,NEIG,"parking_lots,developed_land,trees,water_management,benches,waste_receptacles,hardscapes,turf,restrooms,picnic_areas,planting,playgrounds",,,1,,0.875,0.6,,,,1,0.75,0.8333,1,0.875,,1,0.3333,,1,1,0.85555,2025/09/19 18:08:56+00,2025/09/19 18:14:47+00,PRN-PCAP-0000001571,48.3,Summer,2025-Summer
6135346.25368246,1980718.47752848,202,1150,1150,2024/09/13 14:58:18+00,2024,Alviso Park and Youth Center,167,LOC-0013,-121.96821239,37.42543504,4,8,6.21,6.18,NEIG,"fields,picnic_areas,playgrounds,restrooms,hardscapes,turf,drinking_fountains,benches,developed_land,trees,undeveloped_land,waste_receptacles,water_management",,0.7,1,,0.625,0.4,,1,,1,0.875,,,0.875,,0.3333,1,1,0.6667,0,0.72884615,2024/09/17 13:19:33+00,2024/09/17 13:19:33+00,PRN-PCAP-0000001150,25.8,Summer,2024-Summer
6165914.30737564,1942581.89369681,203,1013,1013,2024/09/09 13:28:55+00,2024,Kelley Park - Japanese Friendship Garden,686,LOC-0102,-121.86104493,37.32197515,7,2,8.64,8.43,REG,"restrooms,benches,developed_land,trees,undeveloped_land,waste_receptacles,water_management,hardscapes,turf,planting",,,1,,,1,,,,1,1,1,,1,,,1,1,1,1,1,2024/09/09 17:27:48+00,2024/09/09 17:27:48+00,PRN-PCAP-0000001013,8.7,Summer,2024-Summer
6166885.78509147,1943059.47443455,204,1666,1666,2025/09/29 18:42:42+00,2025,Kelley Park,715,LOC-0103,-121.85772822,37.32332543,7,2,121.08,47.44,REG,"picnic_areas,parking_lots,restrooms,drinking_fountains,benches,developed_land,trees,undeveloped_land,waste_receptacles,water_management,courts,planting,hardscapes,turf",1,,1,,,1,,0.5,,0.875,0.875,1,1,1,,0.6667,1,1,1,1,0.92262143,2025/09/29 18:17:58+00,2025/09/29 18:42:24+00,PRN-PCAP-0000001666,8.7,Summer,2025-Summer
6170952.86357147,1937698.9369273,205,1420,1420,2025/09/10 19:04:43+00,2025,La Ragione Tot Lot,711,LOC-0117,-121.84347817,37.30876558,7,2,0.21,0.21,NEIG,"benches,developed_land,trees,waste_receptacles,water_management,playgrounds",,,0.6667,,1,0.4,,,,,,,,,,,0.8333,,0.3333,1,0.70555,2025/09/10 19:02:58+00,2025/09/10 19:05:13+00,PRN-PCAP-0000001420,17.9,Summer,2025-Summer
6170906.20716873,1957001.94458106,206,1044,1044,2024/09/06 16:17:17+00,2024,Madden Park,257,LOC-0672,-121.84459213,37.36177344,5,8,0.33,0.33,NEIG,"picnic_areas,playgrounds,drinking_fountains,benches,trees,waste_receptacles,water_management,hardscapes,planting",,,0.3333,,0.875,,,1,,1,,0.8333,,,,1,1,,1,1,0.89351111,2024/09/11 15:39:02+00,2024/09/11 15:39:02+00,PRN-PCAP-0000001044,8.2,Summer,2024-Summer
6168968.22810505,1917839.76437539,207,1189,1189,2024/09/25 16:59:57+00,2024,Playa del Rey Park,116,LOC-0160,-121.8493169,37.25415005,10,1,2.99,3.03,NEIG,"courts,picnic_areas,playgrounds,planting,turf,drinking_fountains,benches,developed_land,trees,waste_receptacles,water_management",1,,0.6667,,0.9375,1,,1,,,0.875,1,,,,1,1,,1,1,0.95265455,2024/09/25 17:13:49+00,2024/09/25 17:13:49+00,PRN-PCAP-0000001189,29.4,Summer,2024-Summer
6170282.95841523,1923232.00391898,208,1073,1073,2024/09/12 19:30:46+00,2024,Parkview II Park,19,LOC-0150,-121.84458951,37.26877067,2,2,2.79,2.81,NEIG,"playgrounds,exercise_stations,hardscapes,planting,turf,drinking_fountains,benches,developed_land,trees,undeveloped_land,waste_receptacles,water_management",,,1,,0.875,1,,1,0.75,0.8333,1,1,,,,,1,1,1,1,0.95485833,2024/09/12 19:29:22+00,2024/09/12 19:32:07+00,PRN-PCAP-0000001073,44.2,Summer,2024-Summer
6157241.16855396,1924202.89272523,209,633,633,2023/09/13 16:32:02+00,2023,Paul Moore Park,555,LOC-0154,-121.89005762,37.27130717,9,3,8.72,8.74,NEIG,"courts,fields,picnic_areas,playgrounds,restrooms,hardscapes,planting,turf,drinking_fountains,benches,developed_land,trees,undeveloped_land,waste_receptacles,water_management",0.8889,0.8046,1,,0.875,1,,1,,1,0.75,1,,1,,0.6667,0.8333,1,1,1,0.92123333,2023/09/13 17:03:35+00,2023/09/13 17:03:35+00,PRN-PCAP-0000000633,,Summer,2023-Summer
6146327.68808439,1946445.5831479,210,188,188,2021/09/15 16:43:51+00,2021,Municipal Rose Garden,369,LOC-0171,-121.92859789,37.33178375,6,3,10.64,10.67,NEIG,"restrooms,hardscapes,planting,turf,drinking_fountains,benches,developed_land,trees,undeveloped_land,waste_receptacles,water_management,picnic_areas",,,1,,,1,,0.75,,1,0.75,0.8333,,1,,1,0.8333,1,0.6667,1,0.902775,2021/09/15 17:16:54+00,2021/10/01 00:58:56+00,PRN-PCAP-0000000188,75.1,Summer,2021-Summer
6156065.95732172,1911924.88709757,211,1882,1882,2025/11/05 19:25:48+00,2025,Almaden Winery Park,580,LOC-0009,-121.89333984,37.23738748,10,1,4.74,4.83,NEIG,"picnic_areas,playgrounds,parking_lots,hardscapes,planting,turf,drinking_fountains,benches,developed_land,trees,waste_receptacles,water_management",,,0.3333,,0.9375,1,,1,,1,0.75,1,1,,,1,1,,1,1,0.9184,2025/11/05 19:54:20+00,2025/11/05 19:54:20+00,PRN-PCAP-0000001882,58,Summer,2025-Summer
6156834.18872489,1944773.64325032,212,1035,1035,2024/09/06 20:05:42+00,2024,Guadalupe River Park - Discovery Meadow,280,LOC-0259,-121.89237995,37.32762723,3,5,6,6,REG,"benches,trees,waste_receptacles,water_management,turf,drinking_fountains,picnic_areas,developed_land",,,1,,,0.8,,0.75,,,1,,,,,1,1,,1,1,0.94375,2024/09/10 17:03:17+00,2024/09/10 17:03:17+00,PRN-PCAP-0000001035,55.7,Summer,2024-Summer
6177325.66677073,1922758.24994522,213,232,232,2021/09/17 16:24:39+00,2021,Edenvale Branch Library,124,LOC-0635,-121.82084327,37.26798463,2,2,2.43,2.43,LIBR,"developed_land,trees,undeveloped_land,waste_receptacles,water_management,benches,planting",,,1,,,1,,,,,,1,,,,,1,1,1,1,1,2021/09/17 16:31:40+00,2021/10/01 00:58:57+00,PRN-PCAP-0000000232,29,Summer,2021-Summer
6155210.59485923,1940045.49686673,214,674,674,2023/09/22 18:16:03+00,2023,Hummingbird Park,492,LOC-0249,-121.8977204,37.31457647,6,3,0.45,0.43,NEIG,"playgrounds,hardscapes,planting,turf,developed_land,trees,undeveloped_land,waste_receptacles,water_management,picnic_areas,benches",,,1,,1,1,,,,1,1,1,,,,1,1,1,1,0,0.90909091,2023/09/22 18:29:36+00,2023/09/22 18:29:36+00,PRN-PCAP-0000000674,,Summer,2023-Summer
6186305.11272256,1932622.15967931,215,988,988,2024/09/06 19:19:27+00,2024,Silver Creek Linear Park - Picnic Meadow,866,LOC-0182,-121.79045576,37.29541705,8,4,1.86,1.86,NEIG,"exercise_stations,restrooms,turf,benches,developed_land,trees,undeveloped_land,waste_receptacles,water_management,parking_lots,drinking_fountains",,,1,,,1,,1,1,,0.75,,1,1,,,1,1,1,0,0.88636364,2024/09/06 18:59:31+00,2024/09/06 19:19:51+00,PRN-PCAP-0000000988,93.5,Summer,2024-Summer
6158846.26016006,1939954.37434556,216,749,749,2023/10/06 19:01:58+00,2023,Tamien Park,77,LOC-1076,-121.88521539,37.3144747,3,3,1.55,1.55,NEIG,"courts,fields,picnic_areas,playgrounds,exercise_stations,parking_lots,benches,trees,waste_receptacles,water_management,planting,restrooms",0.9,1,1,,0.9375,,,,0.875,,,1,1,0.875,,0,1,,1,1,0.88229167,2023/10/06 19:57:25+00,2023/10/06 19:57:25+00,PRN-PCAP-0000000749,,Summer,2023-Summer
6154827.40435264,1946829.27496581,217,1444,1444,2025/09/11 17:10:05+00,2025,Guadalupe River Park - Arena Green,775,LOC-0088,-121.8993867,37.33319013,6,5,8.65,8.65,REG,"picnic_areas,playgrounds,hardscapes,turf,drinking_fountains,benches,developed_land,trees,waste_receptacles,water_management,courts,parking_lots",0.8889,,1,,1,0.8,,0.25,,0.9167,0.375,,1,,,,0.8333,,1,1,0.824,2025/09/11 16:58:06+00,2025/09/11 18:01:03+00,PRN-PCAP-0000001444,59.4,Special,2025-Special
6181912.79047047,1917004.86348614,218,765,765,2023/10/12 14:31:51+00,2023,Southside Community Center,120,LOC-0189,-121.80480551,37.25236136,2,1,4.2,4.27,CC,"picnic_areas,parking_lots,drinking_fountains,benches,developed_land,trees,undeveloped_land,waste_receptacles,water_management,turf",,,1,,,1,,1,,,1,,1,,,1,1,1,1,1,1,2023/10/13 21:14:41+00,2023/10/13 21:14:41+00,PRN-PCAP-0000000765,,Summer,2023-Summer
6142279.93272847,1936485.22150698,219,82,82,2021/09/01 17:22:42+00,2021,Marijane Hamann Park,368,LOC-0090,-121.94199037,37.30426061,1,3,9.68,9.58,NEIG,"courts,fields,picnic_areas,playgrounds,restrooms,planting,turf,drinking_fountains,benches,developed_land,trees,undeveloped_land,waste_receptacles,water_management",0.8333,1,1,,0.7639,1,,0.5,,,1,1,,1,,0.3333,1,1,1,1,0.88789286,2021/09/01 17:48:45+00,2021/10/01 00:58:54+00,PRN-PCAP-0000000082,47.4,Summer,2021-Summer
6172941.25723247,1955483.63167281,220,143,143,2021/09/09 14:19:19+00,2021,LoBue Park,475,LOC-0106,-121.83751596,37.35768396,5,8,6.09,6.09,NEIG,"courts,picnic_areas,playgrounds,exercise_stations,hardscapes,turf,drinking_fountains,benches,trees,undeveloped_land,waste_receptacles,water_management",0.4,,0.6667,,0.875,,,0.25,1,0.75,0.625,,,,,0,0.5,1,1,1,0.672225,2021/09/09 15:02:33+00,2021/10/01 00:58:55+00,PRN-PCAP-0000000143,9.2,Summer,2021-Summer
6155792.44737005,1945066.63610265,221,1316,1316,2025/09/03 16:27:49+00,2025,Discovery Dog Park,494,LOC-0710,-121.89597738,37.32838921,6,5,0.43,0.45,DOG,"dog_areas,hardscapes,planting,benches,developed_land,trees,waste_receptacles,water_management,drinking_fountains,picnic_areas",,,0.6667,,,1,0.8,0.5,,0.8333,,1,,,,1,0.8333,,1,1,0.86333,2025/09/03 16:55:25+00,2025/09/03 16:55:25+00,PRN-PCAP-0000001316,55.7,Summer,2025-Summer
6159075.54972772,1944908.87263864,222,1933,1933,2025/11/07 19:21:01+00,2025,Parque de los Pobladores,52,LOC-0080,-121.8846791,37.32808992,3,5,0.66,0.52,NEIG,"hardscapes,planting,turf,trees,waste_receptacles,water_management,picnic_areas",,,,,,,,,,1,1,1,,,,1,1,,0.6667,1,0.95238571,2025/11/10 16:21:20+00,2025/11/10 16:21:20+00,PRN-PCAP-0000001933,7.8,Summer,2025-Summer
6160203.60980755,1939573.61526456,223,1929,1929,2025/11/07 17:53:12+00,2025,Parque de Padre Mateo Sheedy,487,LOC-0609,-121.88052916,37.31348415,3,5,0.45,0.44,NEIG,"playgrounds,hardscapes,planting,turf,benches,trees,waste_receptacles,water_management,drinking_fountains",,,0.3333,,0.7143,,,0.25,,0.7917,0.625,0.5,,,,,0.6667,,0,0,0.4312,2025/11/07 18:39:15+00,2025/11/07 18:39:15+00,PRN-PCAP-0000001929,5.5,Special,2025-Special
6160133.84747989,1911479.9463864,224,1973,1973,2025/11/13 18:16:18+00,2025,Guadalupe Oak Grove Park,585,LOC-0078,-121.87934525,37.23633109,10,1,50.57,5.69,NEIG,"parking_lots,restrooms,benches,developed_land,trees,undeveloped_land,waste_receptacles",,,1,,,1,,,,,,,1,1,,,1,1,1,,1,2025/11/13 18:13:58+00,2025/11/13 18:16:36+00,PRN-PCAP-0000001973,92.1,Summer,2025-Summer
6195166.37583989,1913559.75489081,225,536,536,2022/09/16 18:47:46+00,2022,Basking Ridge Park,451,LOC-0016,-121.75911399,37.24339894,2,2,8.13,2.58,NEIG,"picnic_areas,playgrounds,turf,drinking_fountains,benches,developed_land,trees,undeveloped_land,waste_receptacles,water_management",,,1,,1,1,,0.75,,,0.625,,,,,1,1,1,1,1,0.9375,2022/09/16 18:59:15+00,2022/09/16 18:59:15+00,PRN-PCAP-0000000536,93,Summer,2022-Summer
6166787.02807114,1955395.36380473,226,835,835,2023/10/24 19:48:28+00,2023,Plata Arroyo Park,749,LOC-0162,-121.8586837,37.35719808,5,8,6.36,6.36,NEIG,"courts,picnic_areas,playgrounds,exercise_stations,skate_parks,restrooms,hardscapes,turf,drinking_fountains,benches,developed_land,trees,undeveloped_land,waste_receptacles,water_management",0.4,,0.6667,,0.3333,0.6,,0.5,0.375,0.5,0.125,,,0.75,0.4286,0.3333,0.5,1,0,1,0.50079333,2023/10/24 20:47:19+00,2023/10/24 20:47:19+00,PRN-PCAP-0000000835,,Summer,2023-Summer
6168352.37894306,1931829.7619859,227,329,329,2022/08/03 20:05:32+00,2022,Elaine Richardson Park,81,LOC-1068,-121.85212711,37.29254485,7,2,2.18,2.17,NEIG,"courts,picnic_areas,turf,drinking_fountains,benches,trees,waste_receptacles,water_management,playgrounds,hardscapes,planting",1,,1,,1,,,1,,1,1,1,,,,1,1,,1,1,1,2022/08/03 20:15:09+00,2022/08/03 20:15:09+00,PRN-PCAP-0000000329,65.8,Summer,2022-Summer
6172079.46728939,1968640.1135619,228,478,478,2022/08/28 18:32:39+00,2022,Berryessa Branch Library,395,LOC-0020,-121.84112942,37.39378022,4,8,2.98,2.98,LIBR,"developed_land,trees,undeveloped_land,waste_receptacles,water_management,parking_lots,turf",,,,,,0.8,,,,,0.5,,0.8,,,,1,1,0.6667,1,0.82381429,2022/08/28 18:56:07+00,2022/08/28 18:56:07+00,PRN-PCAP-0000000478,38.2,Summer,2022-Summer
6156577.83917198,1914162.97546914,229,1893,1893,2025/11/05 20:35:37+00,2025,De Anza Park,465,LOC-0058,-121.89169599,37.24355458,9,1,8.26,8.3,NEIG,"courts,fields,picnic_areas,playgrounds,restrooms,hardscapes,turf,drinking_fountains,benches,trees,waste_receptacles,water_management,developed_land",0.9333,0.9046,1,,1,1,,0.25,,0.9167,0.875,,,0.875,,,1,,1,1,0.8962,2025/11/05 21:05:41+00,2025/11/05 21:05:41+00,PRN-PCAP-0000001893,58,Special,2025-Special
6177325.66644263,1922758.24994522,230,1421,1421,2025/09/10 19:48:29+00,2025,Edenvale Branch Library,124,LOC-0635,-121.82084327,37.26798463,2,2,2.43,2.43,LIBR,"benches,trees,waste_receptacles,water_management,hardscapes,planting,parking_lots",,,1,,,,,,,1,,0.5,1,,,,0.8333,,1,0,0.7619,2025/09/10 19:59:22+00,2025/09/10 19:59:22+00,PRN-PCAP-0000001421,29,Special,2025-Special
6180806.96262963,1933917.9563003,231,373,373,2022/08/15 18:20:12+00,2022,Dove Hill Park,641,LOC-0060,-121.80941754,37.29876584,8,2,2.93,2.95,NEIG,"picnic_areas,playgrounds,planting,turf,drinking_fountains,benches,trees,waste_receptacles,water_management",,,1,,1,,,0.75,,,0.875,0.6667,,,,0.6667,0.8333,,0.6667,1,0.82871111,2022/08/15 18:44:42+00,2022/08/15 18:44:42+00,PRN-PCAP-0000000373,32.2,Summer,2022-Summer
6167987.33374138,1952317.8784899,232,440,440,2022/08/23 18:56:05+00,2022,San Antonio Tot Lot,648,LOC-0657,-121.85440113,37.34879454,5,8,0.1,0.1,NEIG,"playgrounds,hardscapes,benches,developed_land,trees,undeveloped_land,waste_receptacles,water_management",,,1,,0.8889,1,,,,1,,,,,,,1,1,1,1,0.9861125,2022/08/23 18:59:55+00,2022/08/23 18:59:55+00,PRN-PCAP-0000000440,13.3,Summer,2022-Summer
